{
"type": "FeatureCollection",
"name": "nursery",
"crs": { "type": "name", "properties": { "name": "urn:ogc:def:crs:EPSG::4019" } },
"features": [
{ "type": "Feature", "properties": { "施設名": "キッズルーム  おいでおいで", "郵便番号": "918-8026", "住所": "福井市渕４－２０７", "電話番号": "0776-34-2888", "備考": "認可外保育施設", "経度": 136.186094, "緯度": 36.047057 }, "geometry": { "type": "Point", "coordinates": [ 136.186094, 36.047057 ] } },
{ "type": "Feature", "properties": { "施設名": "天使のひろば　ちるどらんど", "郵便番号": "910-0006", "住所": "福井市中央１丁目２１－２６　山本商事ビル１階", "電話番号": "0776-21-2333", "備考": "認可外保育施設", "経度": 136.219327, "緯度": 36.060434 }, "geometry": { "type": "Point", "coordinates": [ 136.219327, 36.060434 ] } },
{ "type": "Feature", "properties": { "施設名": "子育てサポートセンター　あしおと", "郵便番号": "910-0002", "住所": "福井市町屋２丁目６-２３", "電話番号": "0776-30-0009", "備考": "認可外保育施設", "経度": 136.231082, "緯度": 36.07789 }, "geometry": { "type": "Point", "coordinates": [ 136.231082, 36.07789 ] } },
{ "type": "Feature", "properties": { "施設名": "シルバーママサービス ひだまりの家", "郵便番号": "910-0016", "住所": "福井市大宮２丁目１８-２５", "電話番号": "0776-26-5478", "備考": "認可外保育施設", "経度": 136.221157, "緯度": 36.082545 }, "geometry": { "type": "Point", "coordinates": [ 136.221157, 36.082545 ] } },
{ "type": "Feature", "properties": { "施設名": "県民せいきょう　ハーツきっず羽水", "郵便番号": "918-8114", "住所": "福井市羽水1丁目１１７", "電話番号": "0776-36-3415", "備考": "認可外保育施設", "経度": 136.227033, "緯度": 36.042422 }, "geometry": { "type": "Point", "coordinates": [ 136.227033, 36.042422 ] } },
{ "type": "Feature", "properties": { "施設名": "福井市子ども一時預かり所「の～び・のび」", "郵便番号": "910-8511", "住所": "福井市中央1丁目2番1号　ハピリン２階", "電話番号": "0776-20-5270", "備考": "認可外保育施設", "経度": 136.222263, "緯度": 36.061831 }, "geometry": { "type": "Point", "coordinates": [ 136.222263, 36.061831 ] } },
{ "type": "Feature", "properties": { "施設名": "県民せいきょう　ハーツきっず学園", "郵便番号": "910-0028", "住所": "福井市学園2-9-22", "電話番号": "0776-21-3415", "備考": "認可外保育施設", "経度": 136.197755, "緯度": 36.069785 }, "geometry": { "type": "Point", "coordinates": [ 136.197755, 36.069785 ] } },
{ "type": "Feature", "properties": { "施設名": "県民せいきょう　ハーツきっず志比口", "郵便番号": "910-0845", "住所": "福井市志比口2-11-13", "電話番号": "0776-52-3415", "備考": "認可外保育施設", "経度": 136.237023, "緯度": 36.071219 }, "geometry": { "type": "Point", "coordinates": [ 136.237023, 36.071219 ] } },
{ "type": "Feature", "properties": { "施設名": "SUPER　CENTER　PLANT－3", "郵便番号": "910-3608", "住所": "福井市三留町21-4", "電話番号": "0776-98-7300", "備考": "認可外保育施設", "経度": 136.148501, "緯度": 36.030133 }, "geometry": { "type": "Point", "coordinates": [ 136.148501, 36.030133 ] } },
{ "type": "Feature", "properties": { "施設名": "福井県生活学習館チャイルドルーム", "郵便番号": "918-8135", "住所": "福井市下六条町１４ー１", "電話番号": "0776-41-4200", "備考": "認可外保育施設", "経度": 136.231475, "緯度": 36.035859 }, "geometry": { "type": "Point", "coordinates": [ 136.231475, 36.035859 ] } },
{ "type": "Feature", "properties": { "施設名": "福井市まちなか保育　えくぼ", "郵便番号": "910-0005", "住所": "福井市大手３丁目５－３　システム大手ビル１階", "電話番号": "0776-28-0020", "備考": "認可外保育施設", "経度": 136.218799, "緯度": 36.062822 }, "geometry": { "type": "Point", "coordinates": [ 136.218799, 36.062822 ] } },
{ "type": "Feature", "properties": { "施設名": "町屋福祉会　託児所「くるみ」", "郵便番号": "918-8205", "住所": "福井市北四ツ居１丁目３０－１５", "電話番号": "0776-52-1803", "備考": "認可外保育施設", "経度": 136.247461, "緯度": 36.064659 }, "geometry": { "type": "Point", "coordinates": [ 136.247461, 36.064659 ] } },
{ "type": "Feature", "properties": { "施設名": "（学）あおい学園　新田塚自動車学校", "郵便番号": "910-0101", "住所": "福井市つくし野１丁目１００１", "電話番号": "0776-55-0870", "備考": "認可外保育施設", "経度": 136.216822, "緯度": 36.118566 }, "geometry": { "type": "Point", "coordinates": [ 136.216822, 36.118566 ] } },
{ "type": "Feature", "properties": { "施設名": "こどもの国　あさむつ苑", "郵便番号": "918-8156", "住所": "福井市引目町21-9-2", "電話番号": "0776-38-9282", "備考": "認可外保育施設", "経度": 136.197422, "緯度": 36.022593 }, "geometry": { "type": "Point", "coordinates": [ 136.197422, 36.022593 ] } },
{ "type": "Feature", "properties": { "施設名": "（社）敦賀市シルバー人材センター　託児所「たんぽぽ」", "郵便番号": "914-0124", "住所": "敦賀市金山７８－９", "電話番号": "0770-24-1250", "備考": "認可外保育施設", "経度": 136.047642, "緯度": 35.627104 }, "geometry": { "type": "Point", "coordinates": [ 136.047642, 35.627104 ] } },
{ "type": "Feature", "properties": { "施設名": "きらきら保育園", "郵便番号": "914-0125", "住所": "敦賀市若葉１丁目１６１０", "電話番号": "0770-22-6447", "備考": "認可外保育施設", "経度": 136.048303, "緯度": 35.634381 }, "geometry": { "type": "Point", "coordinates": [ 136.048303, 35.634381 ] } },
{ "type": "Feature", "properties": { "施設名": "（学）あおい学園　つるが中央自動車学校", "郵便番号": "916-0015", "住所": "敦賀市金山２８－１", "電話番号": "0770-22-0500", "備考": "認可外保育施設", "経度": 136.028819, "緯度": 35.629237 }, "geometry": { "type": "Point", "coordinates": [ 136.028819, 35.629237 ] } },
{ "type": "Feature", "properties": { "施設名": "わくわくくらぶ", "郵便番号": "917-0027", "住所": "小浜市遠敷９丁目５０１", "電話番号": "0770-56-4880", "備考": "認可外保育施設", "経度": 135.773805, "緯度": 35.484136 }, "geometry": { "type": "Point", "coordinates": [ 135.773805, 35.484136 ] } },
{ "type": "Feature", "properties": { "施設名": "はましんわくわくステーション", "郵便番号": "917-0069", "住所": "小浜市小浜白鬚１１２", "電話番号": "0770-52-2505", "備考": "認可外保育施設", "経度": 135.742045, "緯度": 35.495595 }, "geometry": { "type": "Point", "coordinates": [ 135.742045, 35.495595 ] } },
{ "type": "Feature", "properties": { "施設名": "シルバーママサービス ”すくすく”", "郵便番号": "910-4115", "住所": "あわら市国影１３－１３", "電話番号": "0776-97-6088", "備考": "認可外保育施設", "経度": 136.203691, "緯度": 36.223948 }, "geometry": { "type": "Point", "coordinates": [ 136.203691, 36.223948 ] } },
{ "type": "Feature", "properties": { "施設名": "NPO法人子育て交流ひろば・ちっく・たっく", "郵便番号": "912-0071", "住所": "大野市鍬掛17-17-1　SC　Ｖｉｏ内", "電話番号": "0779-66-3775", "備考": "認可外保育施設", "経度": 136.478747, "緯度": 35.973408 }, "geometry": { "type": "Point", "coordinates": [ 136.478747, 35.973408 ] } },
{ "type": "Feature", "properties": { "施設名": "県民せいきょう　ハーツきっずさばえ", "郵便番号": "916-0028", "住所": "鯖江市小黒町２丁目９０１", "電話番号": "0778-53-0415", "備考": "認可外保育施設", "経度": 136.175052, "緯度": 35.951381 }, "geometry": { "type": "Point", "coordinates": [ 136.175052, 35.951381 ] } },
{ "type": "Feature", "properties": { "施設名": "県民せいきょう　ハーツきっずたけふ", "郵便番号": "915-0805", "住所": "越前市芝原４丁目６－２１", "電話番号": "0778-21-3415", "備考": "認可外保育施設", "経度": 136.157858, "緯度": 35.919565 }, "geometry": { "type": "Point", "coordinates": [ 136.157858, 35.919565 ] } },
{ "type": "Feature", "properties": { "施設名": "複合型デイサービス「てまり」", "郵便番号": "915-0803", "住所": "越前市平出１丁目１２－３７", "電話番号": "0778-22-5108", "備考": "認可外保育施設", "経度": 136.15977, "緯度": 35.908975 }, "geometry": { "type": "Point", "coordinates": [ 136.15977, 35.908975 ] } },
{ "type": "Feature", "properties": { "施設名": "NPO法人子どもセンターピノキオ", "郵便番号": "915-0071", "住所": "越前市府中１丁目１１－２", "電話番号": "0778-23-8211", "備考": "認可外保育施設", "経度": 136.17038, "緯度": 35.904473 }, "geometry": { "type": "Point", "coordinates": [ 136.17038, 35.904473 ] } },
{ "type": "Feature", "properties": { "施設名": "県民せいきょう　ハーツきっずはるえ", "郵便番号": "919-8114", "住所": "坂井市春江町随応寺２５－１", "電話番号": "0776-58-0882", "備考": "認可外保育施設", "経度": 136.223132, "緯度": 36.134567 }, "geometry": { "type": "Point", "coordinates": [ 136.223132, 36.134567 ] } },
{ "type": "Feature", "properties": { "施設名": "南越前町子ども一時預かりの家 おんぶ", "郵便番号": "919-0227", "住所": "南条郡南越前町脇本２５－１９ 南条ふれあい会館内", "電話番号": "0778-47-3200", "備考": "認可外保育施設", "経度": 136.185811, "緯度": 35.844267 }, "geometry": { "type": "Point", "coordinates": [ 136.185811, 35.844267 ] } },
{ "type": "Feature", "properties": { "施設名": "おひさまるーむ", "郵便番号": "919-1205", "住所": "三方郡美浜町佐田62-43あおなみ保育園内", "電話番号": "0770-38-1316", "備考": "認可外保育施設", "経度": 135.983569, "緯度": 35.627734 }, "geometry": { "type": "Point", "coordinates": [ 135.983569, 35.627734 ] } },
{ "type": "Feature", "properties": { "施設名": "とらいあんぐる", "郵便番号": "918-8206", "住所": "福井市北四ツ居3丁目1-6", "電話番号": "0776-57-1789", "備考": "認可外保育施設", "経度": 136.242681, "緯度": 36.067506 }, "geometry": { "type": "Point", "coordinates": [ 136.242681, 36.067506 ] } },
{ "type": "Feature", "properties": { "施設名": "Smiley Kid's", "郵便番号": "910-0858", "住所": "福井市手寄1丁目7-23", "電話番号": "0776-97-9366", "備考": "認可外保育施設", "経度": 136.222607, "緯度": 36.059784 }, "geometry": { "type": "Point", "coordinates": [ 136.222607, 36.059784 ] } },
{ "type": "Feature", "properties": { "施設名": "たいよう保育ルーム", "郵便番号": "918-8237", "住所": "福井市和田東２丁目601", "電話番号": "0776-43-9097", "備考": "認可外保育施設", "経度": 136.24764, "緯度": 36.051288 }, "geometry": { "type": "Point", "coordinates": [ 136.24764, 36.051288 ] } },
{ "type": "Feature", "properties": { "施設名": "ニチイキッズふくい北四ツ居保育園", "郵便番号": "918-8205", "住所": "福井市北四ツ居２丁目１３－９", "電話番号": "080-6205-1338", "備考": "認可外保育施設", "経度": 136.245473, "緯度": 36.067212 }, "geometry": { "type": "Point", "coordinates": [ 136.245473, 36.067212 ] } },
{ "type": "Feature", "properties": { "施設名": "企業主導型保育施設「すくすくの森」", "郵便番号": "919-0321", "住所": "福井市下河北町7-1-1", "電話番号": "0776-38-6800", "備考": "認可外保育施設", "経度": 136.216615, "緯度": 36.020575 }, "geometry": { "type": "Point", "coordinates": [ 136.216615, 36.020575 ] } },
{ "type": "Feature", "properties": { "施設名": "山本電気工事（株）内　三びきのこぶた保育園", "郵便番号": "917-0241", "住所": "小浜市遠敷８－２０４－１", "電話番号": "0770-56-3833", "備考": "認可外保育施設", "経度": 135.777341, "緯度": 35.484361 }, "geometry": { "type": "Point", "coordinates": [ 135.777341, 35.484361 ] } },
{ "type": "Feature", "properties": { "施設名": "町屋福祉会　まちや保育園", "郵便番号": "915-0092", "住所": "越前市塚町28-25-5", "電話番号": "0778-22-2360", "備考": "認可外保育施設", "経度": 136.192768, "緯度": 35.913409 }, "geometry": { "type": "Point", "coordinates": [ 136.192768, 35.913409 ] } },
{ "type": "Feature", "properties": { "施設名": "白楽荘託児所　キッズの森", "郵便番号": "913-0061", "住所": "坂井市三国町梶４９－１８", "電話番号": "0776-82-1282", "備考": "認可外保育施設", "経度": 136.155077, "緯度": 36.246475 }, "geometry": { "type": "Point", "coordinates": [ 136.155077, 36.246475 ] } },
{ "type": "Feature", "properties": { "施設名": "医療法人嶺南こころの病院　保育ルームあすいく", "郵便番号": "919-1541", "住所": "若狭町市場24-18-1", "電話番号": "0770-62-1131", "備考": "認可外保育施設", "経度": 135.857983, "緯度": 35.465096 }, "geometry": { "type": "Point", "coordinates": [ 135.857983, 35.465096 ] } },
{ "type": "Feature", "properties": { "施設名": "西部保育園", "郵便番号": "910-0022", "住所": "福井市花月２丁目１０－１０", "電話番号": "0776-22-0072", "備考": "保育所", "経度": 136.208726, "緯度": 36.069254 }, "geometry": { "type": "Point", "coordinates": [ 136.208726, 36.069254 ] } },
{ "type": "Feature", "properties": { "施設名": "北部保育園", "郵便番号": "910-0003", "住所": "福井市松本２丁目７－２６", "電話番号": "0776-20-5411", "備考": "保育所", "経度": 136.228412, "緯度": 36.072013 }, "geometry": { "type": "Point", "coordinates": [ 136.228412, 36.072013 ] } },
{ "type": "Feature", "properties": { "施設名": "日之出保育園", "郵便番号": "910-0859", "住所": "福井市日之出５丁目１４－１", "電話番号": "0776-54-0041", "備考": "保育所", "経度": 136.234081, "緯度": 36.066003 }, "geometry": { "type": "Point", "coordinates": [ 136.234081, 36.066003 ] } },
{ "type": "Feature", "properties": { "施設名": "湊保育園", "郵便番号": "910-0026", "住所": "福井市光陽１丁目９－８", "電話番号": "0776-22-0061", "備考": "保育所", "経度": 136.203643, "緯度": 36.067532 }, "geometry": { "type": "Point", "coordinates": [ 136.203643, 36.067532 ] } },
{ "type": "Feature", "properties": { "施設名": "西藤島保育園", "郵便番号": "910-0033", "住所": "福井市三郎丸１丁目１４１４", "電話番号": "0776-22-8851", "備考": "保育所", "経度": 136.193939, "緯度": 36.0795 }, "geometry": { "type": "Point", "coordinates": [ 136.193939, 36.0795 ] } },
{ "type": "Feature", "properties": { "施設名": "御幸保育園", "郵便番号": "910-0854", "住所": "福井市御幸２丁目７－２９", "電話番号": "0776-22-0062", "備考": "保育所", "経度": 136.230507, "緯度": 36.057134 }, "geometry": { "type": "Point", "coordinates": [ 136.230507, 36.057134 ] } },
{ "type": "Feature", "properties": { "施設名": "社保育園", "郵便番号": "918-8031", "住所": "福井市種池１丁目８１１", "電話番号": "0776-36-0065", "備考": "保育所", "経度": 136.191488, "緯度": 36.035267 }, "geometry": { "type": "Point", "coordinates": [ 136.191488, 36.035267 ] } },
{ "type": "Feature", "properties": { "施設名": "花堂保育園", "郵便番号": "918-8012", "住所": "福井市花堂北２丁目２３－２５", "電話番号": null, "備考": "保育所", "経度": 136.210676, "緯度": 36.040028 }, "geometry": { "type": "Point", "coordinates": [ 136.210676, 36.040028 ] } },
{ "type": "Feature", "properties": { "施設名": "河合保育園", "郵便番号": "910-0108", "住所": "福井市山室町１０－７", "電話番号": "0776-55-0109", "備考": "保育所", "経度": 136.193053, "緯度": 36.118751 }, "geometry": { "type": "Point", "coordinates": [ 136.193053, 36.118751 ] } },
{ "type": "Feature", "properties": { "施設名": "清明保育園", "郵便番号": "918-8016", "住所": "福井市江端町３２－６７", "電話番号": "0776-38-2633", "備考": "保育所", "経度": 136.210223, "緯度": 36.027746 }, "geometry": { "type": "Point", "coordinates": [ 136.210223, 36.027746 ] } },
{ "type": "Feature", "properties": { "施設名": "西安居保育園", "郵便番号": "918-8076", "住所": "福井市本堂町８－３１－１", "電話番号": "0776-37-1231", "備考": "保育所", "経度": 136.135056, "緯度": 36.059799 }, "geometry": { "type": "Point", "coordinates": [ 136.135056, 36.059799 ] } },
{ "type": "Feature", "properties": { "施設名": "松本保育園", "郵便番号": "910-0014", "住所": "福井市幾久町７－１７", "電話番号": "0776-22-0068", "備考": "保育所", "経度": 136.226307, "緯度": 36.081298 }, "geometry": { "type": "Point", "coordinates": [ 136.226307, 36.081298 ] } },
{ "type": "Feature", "properties": { "施設名": "上北野保育園", "郵便番号": "918-8203", "住所": "福井市上北野１丁目２２－４６", "電話番号": "0776-54-0069", "備考": "保育所", "経度": 136.250208, "緯度": 36.062129 }, "geometry": { "type": "Point", "coordinates": [ 136.250208, 36.062129 ] } },
{ "type": "Feature", "properties": { "施設名": "麻生津保育園", "郵便番号": "918-8182", "住所": "福井市浅水二日町１３１字下河原１８", "電話番号": "0776-38-1356", "備考": "保育所", "経度": 136.19805, "緯度": 36.001616 }, "geometry": { "type": "Point", "coordinates": [ 136.19805, 36.001616 ] } },
{ "type": "Feature", "properties": { "施設名": "啓蒙保育園", "郵便番号": "910-0842", "住所": "福井市開発１丁目１９１０", "電話番号": "0776-54-0070", "備考": "保育所", "経度": 136.243625, "緯度": 36.077288 }, "geometry": { "type": "Point", "coordinates": [ 136.243625, 36.077288 ] } },
{ "type": "Feature", "properties": { "施設名": "牧島保育園", "郵便番号": "910-0017", "住所": "福井市文京３丁目２６－２３", "電話番号": "0776-22-0071", "備考": "保育所", "経度": 136.210528, "緯度": 36.079789 }, "geometry": { "type": "Point", "coordinates": [ 136.210528, 36.079789 ] } },
{ "type": "Feature", "properties": { "施設名": "本郷保育園", "郵便番号": "910-3255", "住所": "福井市大年町１－５６", "電話番号": "0776-83-0549", "備考": "保育所", "経度": 136.141447, "緯度": 36.116803 }, "geometry": { "type": "Point", "coordinates": [ 136.141447, 36.116803 ] } },
{ "type": "Feature", "properties": { "施設名": "森田東保育園", "郵便番号": "910-0142", "住所": "福井市上森田４丁目３０２", "電話番号": "0776-56-0249", "備考": "保育所", "経度": 136.235168, "緯度": 36.113231 }, "geometry": { "type": "Point", "coordinates": [ 136.235168, 36.113231 ] } },
{ "type": "Feature", "properties": { "施設名": "森田浜保育園", "郵便番号": "910-0136", "住所": "福井市粟森町浜６０３", "電話番号": "0776-56-0482", "備考": "保育所", "経度": 136.241529, "緯度": 36.114576 }, "geometry": { "type": "Point", "coordinates": [ 136.241529, 36.114576 ] } },
{ "type": "Feature", "properties": { "施設名": "東郷保育園", "郵便番号": "910-2165", "住所": "福井市東郷二ケ町３７－１８", "電話番号": "0776-41-0152", "備考": "保育所", "経度": 136.273003, "緯度": 36.015505 }, "geometry": { "type": "Point", "coordinates": [ 136.273003, 36.015505 ] } },
{ "type": "Feature", "properties": { "施設名": "森田栄保育園", "郵便番号": "910-0151", "住所": "福井市栄町２－２２", "電話番号": "0776-56-2244", "備考": "保育所", "経度": 136.223038, "緯度": 36.107728 }, "geometry": { "type": "Point", "coordinates": [ 136.223038, 36.107728 ] } },
{ "type": "Feature", "properties": { "施設名": "森田栄保育園古市分園", "郵便番号": "910-0152", "住所": "福井市古市３丁目９０１", "電話番号": "0776-56-3217", "備考": "保育所", "経度": 136.226266, "緯度": 36.103876 }, "geometry": { "type": "Point", "coordinates": [ 136.226266, 36.103876 ] } },
{ "type": "Feature", "properties": { "施設名": "みやま保育園", "郵便番号": "910-2347", "住所": "福井市境寺町３６－３", "電話番号": "0776-90-1361", "備考": "保育所", "経度": 136.364515, "緯度": 35.998256 }, "geometry": { "type": "Point", "coordinates": [ 136.364515, 35.998256 ] } },
{ "type": "Feature", "properties": { "施設名": "緑ケ丘保育園", "郵便番号": "910-3402", "住所": "福井市鮎川町９２－２３", "電話番号": "0776-88-2050", "備考": "保育所", "経度": 136.03382, "緯度": 36.091776 }, "geometry": { "type": "Point", "coordinates": [ 136.03382, 36.091776 ] } },
{ "type": "Feature", "properties": { "施設名": "中藤保育園", "郵便番号": "910-0807", "住所": "福井市高木北４丁目３０１－１", "電話番号": "0776-54-5540", "備考": "保育所", "経度": 136.235054, "緯度": 36.096524 }, "geometry": { "type": "Point", "coordinates": [ 136.235054, 36.096524 ] } },
{ "type": "Feature", "properties": { "施設名": "西光寺保育園", "郵便番号": "918-8002", "住所": "福井市左内町８－２１", "電話番号": "0776-36-1528", "備考": "保育所", "経度": 136.213178, "緯度": 36.058437 }, "geometry": { "type": "Point", "coordinates": [ 136.213178, 36.058437 ] } },
{ "type": "Feature", "properties": { "施設名": "新田塚保育園", "郵便番号": "910-0067", "住所": "福井市新田塚１丁目４２－１", "電話番号": "0776-21-1373", "備考": "保育所", "経度": 136.205832, "緯度": 36.092377 }, "geometry": { "type": "Point", "coordinates": [ 136.205832, 36.092377 ] } },
{ "type": "Feature", "properties": { "施設名": "高木保育園", "郵便番号": "910-0807", "住所": "福井市高木北２丁目１０１１", "電話番号": "0776-54-4303", "備考": "保育所", "経度": 136.231554, "緯度": 36.099427 }, "geometry": { "type": "Point", "coordinates": [ 136.231554, 36.099427 ] } },
{ "type": "Feature", "properties": { "施設名": "仁愛保育園", "郵便番号": "910-0124", "住所": "福井市天池町３５－２", "電話番号": "0776-56-2688", "備考": "保育所", "経度": 136.21795, "緯度": 36.105992 }, "geometry": { "type": "Point", "coordinates": [ 136.21795, 36.105992 ] } },
{ "type": "Feature", "properties": { "施設名": "大和田保育園", "郵便番号": "910-0802", "住所": "福井市大和田町５１－９", "電話番号": "0776-53-6150", "備考": "保育所", "経度": 136.258463, "緯度": 36.098628 }, "geometry": { "type": "Point", "coordinates": [ 136.258463, 36.098628 ] } },
{ "type": "Feature", "properties": { "施設名": "曙保育園", "郵便番号": "910-3553", "住所": "福井市蒲生町１０－２９", "電話番号": "0776-89-2114", "備考": "保育所", "経度": 136.013666, "緯度": 36.037168 }, "geometry": { "type": "Point", "coordinates": [ 136.013666, 36.037168 ] } },
{ "type": "Feature", "properties": { "施設名": "めいりん保育園", "郵便番号": "918-8013", "住所": "福井市花堂東２丁目２１０", "電話番号": "0776-33-7716", "備考": "保育所", "経度": 136.222761, "緯度": 36.042853 }, "geometry": { "type": "Point", "coordinates": [ 136.222761, 36.042853 ] } },
{ "type": "Feature", "properties": { "施設名": "ゆきんこ森田保育園", "郵便番号": "910-0122", "住所": "福井市石盛町４１５", "電話番号": "0776-50-2273", "備考": "保育所", "経度": 136.223602, "緯度": 36.11738 }, "geometry": { "type": "Point", "coordinates": [ 136.223602, 36.11738 ] } },
{ "type": "Feature", "properties": { "施設名": "気比保育園", "郵便番号": "914-0061", "住所": "敦賀市蓬莱町４－１８", "電話番号": "0770-22-1312", "備考": "保育所", "経度": 136.070171, "緯度": 35.657743 }, "geometry": { "type": "Point", "coordinates": [ 136.070171, 35.657743 ] } },
{ "type": "Feature", "properties": { "施設名": "松原保育園", "郵便番号": "914-0806", "住所": "敦賀市松原町４－５", "電話番号": "0770-22-0854", "備考": "保育所", "経度": 136.053718, "緯度": 35.651207 }, "geometry": { "type": "Point", "coordinates": [ 136.053718, 35.651207 ] } },
{ "type": "Feature", "properties": { "施設名": "黒河保育園", "郵便番号": "914-0132", "住所": "敦賀市御名３８－１５", "電話番号": "0770-22-1147", "備考": "保育所", "経度": 136.0508, "緯度": 35.612373 }, "geometry": { "type": "Point", "coordinates": [ 136.0508, 35.612373 ] } },
{ "type": "Feature", "properties": { "施設名": "金山保育園", "郵便番号": "914-0144", "住所": "敦賀市桜ケ丘町３２－２", "電話番号": "0770-22-2191", "備考": "保育所", "経度": 136.035324, "緯度": 35.624374 }, "geometry": { "type": "Point", "coordinates": [ 136.035324, 35.624374 ] } },
{ "type": "Feature", "properties": { "施設名": "東浦保育園", "郵便番号": "914-0262", "住所": "敦賀市大比田３４－４１－２", "電話番号": "0770-28-1611", "備考": "保育所", "経度": 136.100275, "緯度": 35.744863 }, "geometry": { "type": "Point", "coordinates": [ 136.100275, 35.744863 ] } },
{ "type": "Feature", "properties": { "施設名": "木崎保育園", "郵便番号": "914-0814", "住所": "敦賀市木崎３８－４－１", "電話番号": "0770-23-3710", "備考": "保育所", "経度": 136.044703, "緯度": 35.641891 }, "geometry": { "type": "Point", "coordinates": [ 136.044703, 35.641891 ] } },
{ "type": "Feature", "properties": { "施設名": "つるが保育園", "郵便番号": "914-0053", "住所": "敦賀市舞崎町２丁目２１－１", "電話番号": "0770-23-5510", "備考": "保育所", "経度": 136.07851, "緯度": 35.648333 }, "geometry": { "type": "Point", "coordinates": [ 136.07851, 35.648333 ] } },
{ "type": "Feature", "properties": { "施設名": "粟野保育園", "郵便番号": "914-0141", "住所": "敦賀市莇生野５４－３２－１", "電話番号": "0770-25-0320", "備考": "保育所", "経度": 136.042221, "緯度": 35.630531 }, "geometry": { "type": "Point", "coordinates": [ 136.042221, 35.630531 ] } },
{ "type": "Feature", "properties": { "施設名": "櫛川保育園", "郵便番号": "914-0801", "住所": "敦賀市松島町１３０ー２３８", "電話番号": "0770-25-1210", "備考": "保育所", "経度": 136.042983, "緯度": 35.653262 }, "geometry": { "type": "Point", "coordinates": [ 136.042983, 35.653262 ] } },
{ "type": "Feature", "properties": { "施設名": "三島保育園", "郵便番号": "914-0058", "住所": "敦賀市三島町３７－１０－１", "電話番号": "0770-25-4813", "備考": "保育所", "経度": 136.065439, "緯度": 35.6455 }, "geometry": { "type": "Point", "coordinates": [ 136.065439, 35.6455 ] } },
{ "type": "Feature", "properties": { "施設名": "櫛林保育園", "郵便番号": "914-0138", "住所": "敦賀市櫛林１３－９－１", "電話番号": "0770-25-7540", "備考": "保育所", "経度": 136.046034, "緯度": 35.623971 }, "geometry": { "type": "Point", "coordinates": [ 136.046034, 35.623971 ] } },
{ "type": "Feature", "properties": { "施設名": "中郷保育園", "郵便番号": "914-0037", "住所": "敦賀市道口２４－２－１", "電話番号": "0770-25-7900", "備考": "保育所", "経度": 136.07185, "緯度": 35.628082 }, "geometry": { "type": "Point", "coordinates": [ 136.07185, 35.628082 ] } },
{ "type": "Feature", "properties": { "施設名": "東郷保育園", "郵便番号": "914-0013", "住所": "敦賀市谷口２０－３－４", "電話番号": "0770-25-4761", "備考": "保育所", "経度": 136.091844, "緯度": 35.649264 }, "geometry": { "type": "Point", "coordinates": [ 136.091844, 35.649264 ] } },
{ "type": "Feature", "properties": { "施設名": "沓見保育園", "郵便番号": "914-0823", "住所": "敦賀市沓見６８－１－１", "電話番号": "0770-25-4762", "備考": "保育所", "経度": 136.018617, "緯度": 35.6406 }, "geometry": { "type": "Point", "coordinates": [ 136.018617, 35.6406 ] } },
{ "type": "Feature", "properties": { "施設名": "中郷西保育園", "郵便番号": "914-0045", "住所": "敦賀市古田刈６６－１３０３－２", "電話番号": "0770-24-5270", "備考": "保育所", "経度": 136.061204, "緯度": 35.631715 }, "geometry": { "type": "Point", "coordinates": [ 136.061204, 35.631715 ] } },
{ "type": "Feature", "properties": { "施設名": "松乃栄保育園", "郵便番号": "914-0065", "住所": "敦賀市松栄町１４－１３", "電話番号": "0770-23-0320", "備考": "保育所", "経度": 136.06027, "緯度": 35.655926 }, "geometry": { "type": "Point", "coordinates": [ 136.06027, 35.655926 ] } },
{ "type": "Feature", "properties": { "施設名": "晴明保育園", "郵便番号": "914-0062", "住所": "敦賀市相生町１４－３", "電話番号": "0770-22-1460", "備考": "保育所", "経度": 136.067991, "緯度": 35.655957 }, "geometry": { "type": "Point", "coordinates": [ 136.067991, 35.655957 ] } },
{ "type": "Feature", "properties": { "施設名": "藤ケ丘保育園", "郵便番号": "914-0017", "住所": "敦賀市藤ケ丘町１５－５", "電話番号": "0770-25-8854", "備考": "保育所", "経度": 136.085275, "緯度": 35.654522 }, "geometry": { "type": "Point", "coordinates": [ 136.085275, 35.654522 ] } },
{ "type": "Feature", "properties": { "施設名": "つくしんぼ保育園", "郵便番号": "914-0131", "住所": "敦賀市公文名２９－１－２", "電話番号": "0770-25-8547", "備考": "保育所", "経度": 136.0524, "緯度": 35.6193 }, "geometry": { "type": "Point", "coordinates": [ 136.0524, 35.6193 ] } },
{ "type": "Feature", "properties": { "施設名": "遠敷保育園", "郵便番号": "917-0241", "住所": "小浜市遠敷７１－８", "電話番号": "0770-52-0432", "備考": "保育所", "経度": 135.781041, "緯度": 35.478118 }, "geometry": { "type": "Point", "coordinates": [ 135.781041, 35.478118 ] } },
{ "type": "Feature", "properties": { "施設名": "国富保育園", "郵便番号": "917-0015", "住所": "小浜市粟田１７－１２", "電話番号": "0770-52-5683", "備考": "保育所", "経度": 135.774489, "緯度": 35.500583 }, "geometry": { "type": "Point", "coordinates": [ 135.774489, 35.500583 ] } },
{ "type": "Feature", "properties": { "施設名": "口名田保育園", "郵便番号": "917-0036", "住所": "小浜市中井４５－８", "電話番号": "0770-58-0212", "備考": "保育所", "経度": 135.718827, "緯度": 35.457669 }, "geometry": { "type": "Point", "coordinates": [ 135.718827, 35.457669 ] } },
{ "type": "Feature", "properties": { "施設名": "中名田保育園", "郵便番号": "917-0354", "住所": "小浜市和多田１３－４０", "電話番号": "0770-59-0102", "備考": "保育所", "経度": 135.676072, "緯度": 35.426541 }, "geometry": { "type": "Point", "coordinates": [ 135.676072, 35.426541 ] } },
{ "type": "Feature", "properties": { "施設名": "加斗保育園", "郵便番号": "917-0044", "住所": "小浜市飯盛５８－１５", "電話番号": "0770-53-3049", "備考": "保育所", "経度": 135.677347, "緯度": 35.483266 }, "geometry": { "type": "Point", "coordinates": [ 135.677347, 35.483266 ] } },
{ "type": "Feature", "properties": { "施設名": "内外海保育園", "郵便番号": "917-0107", "住所": "小浜市甲ヶ崎２２－３３", "電話番号": "0770-53-0554", "備考": "保育所", "経度": 135.754482, "緯度": 35.528548 }, "geometry": { "type": "Point", "coordinates": [ 135.754482, 35.528548 ] } },
{ "type": "Feature", "properties": { "施設名": "松永保育園", "郵便番号": "917-0234", "住所": "小浜市上野２８－８－２", "電話番号": "0770-57-1822", "備考": "保育所", "経度": 135.796354, "緯度": 35.473966 }, "geometry": { "type": "Point", "coordinates": [ 135.796354, 35.473966 ] } },
{ "type": "Feature", "properties": { "施設名": "聖ルカ乳児保育園", "郵便番号": "917-0072", "住所": "小浜市千種２丁目４－１２", "電話番号": "0770-53-1538", "備考": "保育所", "経度": 135.750377, "緯度": 35.499379 }, "geometry": { "type": "Point", "coordinates": [ 135.750377, 35.499379 ] } },
{ "type": "Feature", "properties": { "施設名": "チューリップ保育園", "郵便番号": "917-0054", "住所": "小浜市伏原２２－１－１２", "電話番号": "0770-53-2125", "備考": "保育所", "経度": 135.745769, "緯度": 35.491171 }, "geometry": { "type": "Point", "coordinates": [ 135.745769, 35.491171 ] } },
{ "type": "Feature", "properties": { "施設名": "今富そらのとり保育園", "郵便番号": "917-0024", "住所": "小浜市和久里３３－６", "電話番号": "0770-56-5677", "備考": "保育所", "経度": 135.759332, "緯度": 35.48545 }, "geometry": { "type": "Point", "coordinates": [ 135.759332, 35.48545 ] } },
{ "type": "Feature", "properties": { "施設名": "やまなみ保育園", "郵便番号": "917-0093", "住所": "小浜市水取４丁目３－１０", "電話番号": "0770-53-2873", "備考": "保育所", "経度": 135.755538, "緯度": 35.504778 }, "geometry": { "type": "Point", "coordinates": [ 135.755538, 35.504778 ] } },
{ "type": "Feature", "properties": { "施設名": "春日保育園（休所）", "郵便番号": "912-0051", "住所": "大野市日吉町２４－６", "電話番号": "0779-66-4005", "備考": "保育所", "経度": 136.495695, "緯度": 35.980324 }, "geometry": { "type": "Point", "coordinates": [ 136.495695, 35.980324 ] } },
{ "type": "Feature", "properties": { "施設名": "あかね保育園", "郵便番号": "912-0088", "住所": "大野市水落町７－２４", "電話番号": "0779-66-5273", "備考": "保育所", "経度": 136.488427, "緯度": 35.991648 }, "geometry": { "type": "Point", "coordinates": [ 136.488427, 35.991648 ] } },
{ "type": "Feature", "properties": { "施設名": "荒島保育園", "郵便番号": "912-0813", "住所": "大野市上野４２－１７", "電話番号": "0779-66-4257", "備考": "保育所", "経度": 136.538175, "緯度": 35.990419 }, "geometry": { "type": "Point", "coordinates": [ 136.538175, 35.990419 ] } },
{ "type": "Feature", "properties": { "施設名": "阪谷保育園", "郵便番号": "912-0149", "住所": "大野市伏石１１－１４", "電話番号": "0779-67-1070", "備考": "保育所", "経度": 136.574065, "緯度": 35.984901 }, "geometry": { "type": "Point", "coordinates": [ 136.574065, 35.984901 ] } },
{ "type": "Feature", "properties": { "施設名": "いとよ保育園", "郵便番号": "912-0032", "住所": "大野市清和町７１０", "電話番号": "0779-66-3848", "備考": "保育所", "経度": 136.502195, "緯度": 35.985613 }, "geometry": { "type": "Point", "coordinates": [ 136.502195, 35.985613 ] } },
{ "type": "Feature", "properties": { "施設名": "上庄保育園", "郵便番号": "912-0415", "住所": "大野市稲郷４３－５", "電話番号": "0779-64-1217", "備考": "保育所", "経度": 136.522999, "緯度": 35.948885 }, "geometry": { "type": "Point", "coordinates": [ 136.522999, 35.948885 ] } },
{ "type": "Feature", "properties": { "施設名": "亀山保育園", "郵便番号": "912-0088", "住所": "大野市水落町３－３５", "電話番号": "0779-65-1104", "備考": "保育所", "経度": 136.48578, "緯度": 35.989673 }, "geometry": { "type": "Point", "coordinates": [ 136.48578, 35.989673 ] } },
{ "type": "Feature", "properties": { "施設名": "開成保育園", "郵便番号": "912-0085", "住所": "大野市新庄５字１５－２", "電話番号": "0779-65-1103", "備考": "保育所", "経度": 136.489788, "緯度": 35.974797 }, "geometry": { "type": "Point", "coordinates": [ 136.489788, 35.974797 ] } },
{ "type": "Feature", "properties": { "施設名": "篠座保育園", "郵便番号": "912-0061", "住所": "大野市篠座７４－３２", "電話番号": "0779-65-6570", "備考": "保育所", "経度": 136.499842, "緯度": 35.963385 }, "geometry": { "type": "Point", "coordinates": [ 136.499842, 35.963385 ] } },
{ "type": "Feature", "properties": { "施設名": "和泉保育園", "郵便番号": "912-0205", "住所": "大野市朝日２５－７", "電話番号": "0779-78-2812", "備考": "保育所", "経度": 136.662656, "緯度": 35.905223 }, "geometry": { "type": "Point", "coordinates": [ 136.662656, 35.905223 ] } },
{ "type": "Feature", "properties": { "施設名": "南保育園", "郵便番号": "911-0804", "住所": "勝山市元町２丁目７－２８", "電話番号": "0779-88-0850", "備考": "保育所", "経度": 136.503201, "緯度": 36.056154 }, "geometry": { "type": "Point", "coordinates": [ 136.503201, 36.056154 ] } },
{ "type": "Feature", "properties": { "施設名": "平泉寺保育園", "郵便番号": "911-0822", "住所": "勝山市平泉寺町平泉寺１６４－４５甲", "電話番号": "0779-88-4332", "備考": "保育所", "経度": 136.532318, "緯度": 36.03586 }, "geometry": { "type": "Point", "coordinates": [ 136.532318, 36.03586 ] } },
{ "type": "Feature", "properties": { "施設名": "野向保育園", "郵便番号": "911-0016", "住所": "勝山市野向町龍谷５０－４７", "電話番号": "0779-87-3888", "備考": "保育所", "経度": 136.493825, "緯度": 36.09141 }, "geometry": { "type": "Point", "coordinates": [ 136.493825, 36.09141 ] } },
{ "type": "Feature", "properties": { "施設名": "ケイテー保育園", "郵便番号": "911-0804", "住所": "勝山市元町１－８－１７", "電話番号": "0779-87-1857", "備考": "保育所", "経度": 136.501606, "緯度": 36.060828 }, "geometry": { "type": "Point", "coordinates": [ 136.501606, 36.060828 ] } },
{ "type": "Feature", "properties": { "施設名": "中央保育園", "郵便番号": "911-0033", "住所": "勝山市栄町２－７－６", "電話番号": "0779-88-0872", "備考": "保育所", "経度": 136.494176, "緯度": 36.062194 }, "geometry": { "type": "Point", "coordinates": [ 136.494176, 36.062194 ] } },
{ "type": "Feature", "properties": { "施設名": "松文保育園", "郵便番号": "911-0803", "住所": "勝山市旭町１－１－５６", "電話番号": "0779-69-1111", "備考": "保育所", "経度": 136.50622, "緯度": 36.057898 }, "geometry": { "type": "Point", "coordinates": [ 136.50622, 36.057898 ] } },
{ "type": "Feature", "properties": { "施設名": "鹿谷保育園", "郵便番号": "911-0848", "住所": "勝山市鹿谷町保田９９－３１－２", "電話番号": "0779-89-2211", "備考": "保育所", "経度": 136.464401, "緯度": 36.070571 }, "geometry": { "type": "Point", "coordinates": [ 136.464401, 36.070571 ] } },
{ "type": "Feature", "properties": { "施設名": "北郷わしのこ保育園", "郵便番号": "911-0054", "住所": "勝山市北郷町東野２８－４５", "電話番号": "0779-89-3433", "備考": "保育所", "経度": 136.429629, "緯度": 36.084505 }, "geometry": { "type": "Point", "coordinates": [ 136.429629, 36.084505 ] } },
{ "type": "Feature", "properties": { "施設名": "王山保育所", "郵便番号": "916-0053", "住所": "鯖江市本町４丁目６－１７", "電話番号": "0778-51-0640", "備考": "保育所", "経度": 136.184304, "緯度": 35.949067 }, "geometry": { "type": "Point", "coordinates": [ 136.184304, 35.949067 ] } },
{ "type": "Feature", "properties": { "施設名": "早稲田保育所", "郵便番号": "916-0026", "住所": "鯖江市日の出町６－３７", "電話番号": "0778-51-0364", "備考": "保育所", "経度": 136.185957, "緯度": 35.942341 }, "geometry": { "type": "Point", "coordinates": [ 136.185957, 35.942341 ] } },
{ "type": "Feature", "properties": { "施設名": "神明保育所", "郵便番号": "916-0021", "住所": "鯖江市三六町１丁目１－１２", "電話番号": "0778-51-1137", "備考": "保育所", "経度": 136.178971, "緯度": 35.968409 }, "geometry": { "type": "Point", "coordinates": [ 136.178971, 35.968409 ] } },
{ "type": "Feature", "properties": { "施設名": "中河保育所", "郵便番号": "916-0033", "住所": "鯖江市中野町２０８－１", "電話番号": "0778-51-3103", "備考": "保育所", "経度": 136.210343, "緯度": 35.954503 }, "geometry": { "type": "Point", "coordinates": [ 136.210343, 35.954503 ] } },
{ "type": "Feature", "properties": { "施設名": "みずほ保育園", "郵便番号": "916-0038", "住所": "鯖江市下河端町４７－４３", "電話番号": "0778-51-1416", "備考": "保育所", "経度": 136.197744, "緯度": 35.968576 }, "geometry": { "type": "Point", "coordinates": [ 136.197744, 35.968576 ] } },
{ "type": "Feature", "properties": { "施設名": "立待保育所", "郵便番号": "916-0005", "住所": "鯖江市杉本町３３－４－１", "電話番号": "0778-51-3377", "備考": "保育所", "経度": 136.173629, "緯度": 35.983571 }, "geometry": { "type": "Point", "coordinates": [ 136.173629, 35.983571 ] } },
{ "type": "Feature", "properties": { "施設名": "石田保育所", "郵便番号": "916-0083", "住所": "鯖江市石田上町４４－１", "電話番号": "0778-51-1972", "備考": "保育所", "経度": 136.160972, "緯度": 35.979554 }, "geometry": { "type": "Point", "coordinates": [ 136.160972, 35.979554 ] } },
{ "type": "Feature", "properties": { "施設名": "吉川保育所", "郵便番号": "916-0085", "住所": "鯖江市大倉町５－２０", "電話番号": "0778-62-1332", "備考": "保育所", "経度": 136.156526, "緯度": 35.96294 }, "geometry": { "type": "Point", "coordinates": [ 136.156526, 35.96294 ] } },
{ "type": "Feature", "properties": { "施設名": "かわだ保育所", "郵便番号": "916-1224", "住所": "鯖江市莇生田町１０－５－１", "電話番号": "0778-65-0173", "備考": "保育所", "経度": 136.272373, "緯度": 35.946232 }, "geometry": { "type": "Point", "coordinates": [ 136.272373, 35.946232 ] } },
{ "type": "Feature", "properties": { "施設名": "草の実保育園", "郵便番号": "916-0013", "住所": "鯖江市鳥羽１丁目３－１８－２", "電話番号": "0778-52-1511", "備考": "保育所", "経度": 136.186808, "緯度": 35.984227 }, "geometry": { "type": "Point", "coordinates": [ 136.186808, 35.984227 ] } },
{ "type": "Feature", "properties": { "施設名": "すみれ保育園", "郵便番号": "916-0056", "住所": "鯖江市住吉町１丁目１４－１４", "電話番号": "0778-51-4144", "備考": "保育所", "経度": 136.181902, "緯度": 35.941096 }, "geometry": { "type": "Point", "coordinates": [ 136.181902, 35.941096 ] } },
{ "type": "Feature", "properties": { "施設名": "やなぎ保育園", "郵便番号": "916-0047", "住所": "鯖江市柳町４丁目２－１７", "電話番号": "0778-51-0012", "備考": "保育所", "経度": 136.192003, "緯度": 35.948409 }, "geometry": { "type": "Point", "coordinates": [ 136.192003, 35.948409 ] } },
{ "type": "Feature", "properties": { "施設名": "白蓮保育園", "郵便番号": "916-0004", "住所": "鯖江市糺町３７－７", "電話番号": "0778-51-2493", "備考": "保育所", "経度": 136.173138, "緯度": 35.97808 }, "geometry": { "type": "Point", "coordinates": [ 136.173138, 35.97808 ] } },
{ "type": "Feature", "properties": { "施設名": "あすなろ保育園", "郵便番号": "916-0015", "住所": "鯖江市御幸町２丁目１５－１５", "電話番号": "0778-51-6552", "備考": "保育所", "経度": 136.191686, "緯度": 35.977944 }, "geometry": { "type": "Point", "coordinates": [ 136.191686, 35.977944 ] } },
{ "type": "Feature", "properties": { "施設名": "吉江保育園", "郵便番号": "916-0005", "住所": "鯖江市杉本町４０８", "電話番号": "0778-51-6555", "備考": "保育所", "経度": 136.171776, "緯度": 35.982957 }, "geometry": { "type": "Point", "coordinates": [ 136.171776, 35.982957 ] } },
{ "type": "Feature", "properties": { "施設名": "鯖江いずみ保育園", "郵便番号": "916-0038", "住所": "鯖江市下河端町２－８", "電話番号": "0778-52-4771", "備考": "保育所", "経度": 136.187936, "緯度": 35.969884 }, "geometry": { "type": "Point", "coordinates": [ 136.187936, 35.969884 ] } },
{ "type": "Feature", "properties": { "施設名": "新横江保育園", "郵便番号": "916-0042", "住所": "鯖江市新横江１丁目３－１３", "電話番号": "0778-52-3883", "備考": "保育所", "経度": 136.195912, "緯度": 35.941869 }, "geometry": { "type": "Point", "coordinates": [ 136.195912, 35.941869 ] } },
{ "type": "Feature", "properties": { "施設名": "ふじ保育園", "郵便番号": "916-0071", "住所": "鯖江市持明寺町１４－１４－１", "電話番号": "0778-62-0236", "備考": "保育所", "経度": 136.144741, "緯度": 35.963523 }, "geometry": { "type": "Point", "coordinates": [ 136.144741, 35.963523 ] } },
{ "type": "Feature", "properties": { "施設名": "上太田保育園", "郵便番号": "915-0882", "住所": "越前市上太田町１１－２", "電話番号": "0778-22-0065", "備考": "保育所", "経度": 136.151307, "緯度": 35.900545 }, "geometry": { "type": "Point", "coordinates": [ 136.151307, 35.900545 ] } },
{ "type": "Feature", "properties": { "施設名": "なかよし保育園", "郵便番号": "915-0832", "住所": "越前市高瀬二丁目４－１４", "電話番号": "0778-23-8024", "備考": "保育所", "経度": 136.160914, "緯度": 35.89909 }, "geometry": { "type": "Point", "coordinates": [ 136.160914, 35.89909 ] } },
{ "type": "Feature", "properties": { "施設名": "家久保育園", "郵便番号": "915-0801", "住所": "越前市家久町９４－２－１", "電話番号": "0778-24-1244", "備考": "保育所", "経度": 136.166921, "緯度": 35.922551 }, "geometry": { "type": "Point", "coordinates": [ 136.166921, 35.922551 ] } },
{ "type": "Feature", "properties": { "施設名": "二葉保育園", "郵便番号": "915-0026", "住所": "越前市五分市町３－６－１", "電話番号": "0778-27-1328", "備考": "保育所", "経度": 136.227798, "緯度": 35.891352 }, "geometry": { "type": "Point", "coordinates": [ 136.227798, 35.891352 ] } },
{ "type": "Feature", "properties": { "施設名": "南保育園", "郵便番号": "915-0063", "住所": "越前市若竹町１２－２３", "電話番号": "0778-22-3214", "備考": "保育所", "経度": 136.167158, "緯度": 35.893122 }, "geometry": { "type": "Point", "coordinates": [ 136.167158, 35.893122 ] } },
{ "type": "Feature", "properties": { "施設名": "西保育園", "郵便番号": "915-0804", "住所": "越前市新保町３２－１０", "電話番号": "0778-22-7151", "備考": "保育所", "経度": 136.151757, "緯度": 35.907295 }, "geometry": { "type": "Point", "coordinates": [ 136.151757, 35.907295 ] } },
{ "type": "Feature", "properties": { "施設名": "国高保育園", "郵便番号": "915-0084", "住所": "越前市村国一丁目９－８", "電話番号": "0778-23-0983", "備考": "保育所", "経度": 136.183003, "緯度": 35.907073 }, "geometry": { "type": "Point", "coordinates": [ 136.183003, 35.907073 ] } },
{ "type": "Feature", "properties": { "施設名": "高瀬保育園", "郵便番号": "915-0841", "住所": "越前市文京二丁目４－３", "電話番号": "0778-23-5203", "備考": "保育所", "経度": 136.161039, "緯度": 35.894624 }, "geometry": { "type": "Point", "coordinates": [ 136.161039, 35.894624 ] } },
{ "type": "Feature", "properties": { "施設名": "愛星保育園", "郵便番号": "915-0876", "住所": "越前市白崎町３３－２－１", "電話番号": "0778-24-4450", "備考": "保育所", "経度": 136.146967, "緯度": 35.864272 }, "geometry": { "type": "Point", "coordinates": [ 136.146967, 35.864272 ] } },
{ "type": "Feature", "properties": { "施設名": "そよかぜ保育園", "郵便番号": "915-0091", "住所": "越前市高木町１２－７－１", "電話番号": "0778-24-0340", "備考": "保育所", "経度": 136.19066, "緯度": 35.927904 }, "geometry": { "type": "Point", "coordinates": [ 136.19066, 35.927904 ] } },
{ "type": "Feature", "properties": { "施設名": "たんぽぽ保育園", "郵便番号": "915-0842", "住所": "越前市常久町１０１", "電話番号": "0778-24-4460", "備考": "保育所", "経度": 136.162175, "緯度": 35.885439 }, "geometry": { "type": "Point", "coordinates": [ 136.162175, 35.885439 ] } },
{ "type": "Feature", "properties": { "施設名": "加戸保育園", "郵便番号": "913-0002", "住所": "坂井市三国町加戸３４－３０－１", "電話番号": "0776-82-0097", "備考": "保育所", "経度": 136.172507, "緯度": 36.228169 }, "geometry": { "type": "Point", "coordinates": [ 136.172507, 36.228169 ] } },
{ "type": "Feature", "properties": { "施設名": "みくに未来保育園", "郵便番号": "913-0047", "住所": "坂井市三国町神明１丁目５－４６", "電話番号": "0776-81-2373", "備考": "保育所", "経度": 136.14691, "緯度": 36.216853 }, "geometry": { "type": "Point", "coordinates": [ 136.14691, 36.216853 ] } },
{ "type": "Feature", "properties": { "施設名": "三国南保育園", "郵便番号": "913-0045", "住所": "坂井市三国町南本町１丁目４－３５", "電話番号": "0776-81-2910", "備考": "保育所", "経度": 136.15444, "緯度": 36.212115 }, "geometry": { "type": "Point", "coordinates": [ 136.15444, 36.212115 ] } },
{ "type": "Feature", "properties": { "施設名": "三国松涛保育園", "郵便番号": "913-0052", "住所": "坂井市三国町運動公園２丁目１５－１５", "電話番号": "0776-82-7369", "備考": "保育所", "経度": 136.151517, "緯度": 36.228146 }, "geometry": { "type": "Point", "coordinates": [ 136.151517, 36.228146 ] } },
{ "type": "Feature", "properties": { "施設名": "米納津保育所", "郵便番号": "913-0037", "住所": "坂井市三国町黒目１８－１８", "電話番号": "0776-81-3069", "備考": "保育所", "経度": 136.131888, "緯度": 36.173521 }, "geometry": { "type": "Point", "coordinates": [ 136.131888, 36.173521 ] } },
{ "type": "Feature", "properties": { "施設名": "霞保育園", "郵便番号": "910-0231", "住所": "坂井市丸岡町霞町３丁目１０－１", "電話番号": "0776-66-0848", "備考": "保育所", "経度": 136.274945, "緯度": 36.153333 }, "geometry": { "type": "Point", "coordinates": [ 136.274945, 36.153333 ] } },
{ "type": "Feature", "properties": { "施設名": "今福保育園", "郵便番号": "910-0304", "住所": "坂井市丸岡町今福１３－７", "電話番号": "0776-66-1196", "備考": "保育所", "経度": 136.267752, "緯度": 36.145189 }, "geometry": { "type": "Point", "coordinates": [ 136.267752, 36.145189 ] } },
{ "type": "Feature", "properties": { "施設名": "安田保育園", "郵便番号": "910-0363", "住所": "坂井市丸岡町下安田１９－９", "電話番号": "0776-66-0196", "備考": "保育所", "経度": 136.253404, "緯度": 36.125688 }, "geometry": { "type": "Point", "coordinates": [ 136.253404, 36.125688 ] } },
{ "type": "Feature", "properties": { "施設名": "鳴鹿保育園", "郵便番号": "910-0335", "住所": "坂井市丸岡町上金屋５－１５", "電話番号": "0776-66-2757", "備考": "保育所", "経度": 136.308129, "緯度": 36.110581 }, "geometry": { "type": "Point", "coordinates": [ 136.308129, 36.110581 ] } },
{ "type": "Feature", "properties": { "施設名": "磯部西保育園", "郵便番号": "910-0362", "住所": "坂井市丸岡町上安田７－３－１", "電話番号": "0776-66-7601", "備考": "保育所", "経度": 136.257073, "緯度": 36.123656 }, "geometry": { "type": "Point", "coordinates": [ 136.257073, 36.123656 ] } },
{ "type": "Feature", "properties": { "施設名": "高椋保育園", "郵便番号": "910-0351", "住所": "坂井市丸岡町寅国２－１３", "電話番号": "0776-67-4633", "備考": "保育所", "経度": 136.26966, "緯度": 36.144115 }, "geometry": { "type": "Point", "coordinates": [ 136.26966, 36.144115 ] } },
{ "type": "Feature", "properties": { "施設名": "つぼみ保育園", "郵便番号": "910-0208", "住所": "坂井市丸岡町坪江９－１１", "電話番号": "0776-66-2564", "備考": "保育所", "経度": 136.274438, "緯度": 36.1748 }, "geometry": { "type": "Point", "coordinates": [ 136.274438, 36.1748 ] } },
{ "type": "Feature", "properties": { "施設名": "もみじ保育園", "郵便番号": "910-0325", "住所": "坂井市丸岡町板倉４５－９", "電話番号": "0776-67-6760", "備考": "保育所", "経度": 136.284098, "緯度": 36.128234 }, "geometry": { "type": "Point", "coordinates": [ 136.284098, 36.128234 ] } },
{ "type": "Feature", "properties": { "施設名": "まごころ保育園", "郵便番号": "910-0383", "住所": "坂井市丸岡町長崎８－５－３", "電話番号": "0776-68-0756", "備考": "保育所", "経度": 136.250654, "緯度": 36.142561 }, "geometry": { "type": "Point", "coordinates": [ 136.250654, 36.142561 ] } },
{ "type": "Feature", "properties": { "施設名": "しろの子保育園", "郵便番号": "910-0236", "住所": "坂井市丸岡町本町４－６０", "電話番号": "0776-68-0360", "備考": "保育所", "経度": 136.271012, "緯度": 36.156369 }, "geometry": { "type": "Point", "coordinates": [ 136.271012, 36.156369 ] } },
{ "type": "Feature", "properties": { "施設名": "わっか保育園", "郵便番号": "910-0301", "住所": "坂井市丸岡町愛宕９－１", "電話番号": "0776-68-0181", "備考": "保育所", "経度": 136.277537, "緯度": 36.149511 }, "geometry": { "type": "Point", "coordinates": [ 136.277537, 36.149511 ] } },
{ "type": "Feature", "properties": { "施設名": "春江中保育園", "郵便番号": "919-0473", "住所": "坂井市春江町本堂５－４２", "電話番号": "0776-51-0480", "備考": "保育所", "経度": 136.20902, "緯度": 36.137741 }, "geometry": { "type": "Point", "coordinates": [ 136.20902, 36.137741 ] } },
{ "type": "Feature", "properties": { "施設名": "春江東保育園", "郵便番号": "919-0445", "住所": "坂井市春江町中筋高田１１", "電話番号": "0776-51-2288", "備考": "保育所", "経度": 136.23502, "緯度": 36.126435 }, "geometry": { "type": "Point", "coordinates": [ 136.23502, 36.126435 ] } },
{ "type": "Feature", "properties": { "施設名": "春江北保育園", "郵便番号": "919-0482", "住所": "坂井市春江町中庄１１－２－３", "電話番号": "0776-51-9622", "備考": "保育所", "経度": 136.189807, "緯度": 36.14897 }, "geometry": { "type": "Point", "coordinates": [ 136.189807, 36.14897 ] } },
{ "type": "Feature", "properties": { "施設名": "春江西保育園", "郵便番号": "919-0472", "住所": "坂井市春江町松木１１－７", "電話番号": "0776-51-3046", "備考": "保育所", "経度": 136.200887, "緯度": 36.136402 }, "geometry": { "type": "Point", "coordinates": [ 136.200887, 36.136402 ] } },
{ "type": "Feature", "properties": { "施設名": "春江保育園", "郵便番号": "919-0414", "住所": "坂井市春江町江留下屋敷２２０", "電話番号": "0776-51-2372", "備考": "保育所", "経度": 136.221752, "緯度": 36.130181 }, "geometry": { "type": "Point", "coordinates": [ 136.221752, 36.130181 ] } },
{ "type": "Feature", "properties": { "施設名": "春江東部保育園", "郵便番号": "919-0449", "住所": "坂井市春江町中筋２９?１", "電話番号": "0776-58-5833", "備考": "保育所", "経度": 136.237886, "緯度": 36.12946 }, "geometry": { "type": "Point", "coordinates": [ 136.237886, 36.12946 ] } },
{ "type": "Feature", "properties": { "施設名": "春江みどり保育園", "郵便番号": "919-0416", "住所": "坂井市春江町江留下宇和江９", "電話番号": "0776-51-0285", "備考": "保育所", "経度": 136.220877, "緯度": 36.126237 }, "geometry": { "type": "Point", "coordinates": [ 136.220877, 36.126237 ] } },
{ "type": "Feature", "properties": { "施設名": "いと勢保育園", "郵便番号": "919-0417", "住所": "坂井市春江町江留下相田２７－１", "電話番号": "0776-51-2715", "備考": "保育所", "経度": 136.219447, "緯度": 36.128012 }, "geometry": { "type": "Point", "coordinates": [ 136.219447, 36.128012 ] } },
{ "type": "Feature", "properties": { "施設名": "春江ゆり保育園", "郵便番号": "919-0413　", "住所": "坂井市春江町随応寺２４－１７", "電話番号": "0776-51-5200", "備考": "保育所", "経度": 136.222188, "緯度": 36.132903 }, "geometry": { "type": "Point", "coordinates": [ 136.222188, 36.132903 ] } },
{ "type": "Feature", "properties": { "施設名": "るんびに保育園", "郵便番号": "919-0527", "住所": "坂井市坂井町下兵庫５６－４", "電話番号": "0776-72-0229", "備考": "保育所", "経度": 136.197702, "緯度": 36.173089 }, "geometry": { "type": "Point", "coordinates": [ 136.197702, 36.173089 ] } },
{ "type": "Feature", "properties": { "施設名": "大関保育園", "郵便番号": "919-0547", "住所": "坂井市坂井町大味２７－１４", "電話番号": "0776-72-1870", "備考": "保育所", "経度": 136.207303, "緯度": 36.187619 }, "geometry": { "type": "Point", "coordinates": [ 136.207303, 36.187619 ] } },
{ "type": "Feature", "properties": { "施設名": "すずらん保育園", "郵便番号": "919-0532", "住所": "坂井市坂井町高柳１１７－１１－２", "電話番号": "0776-72-1244", "備考": "保育所", "経度": 136.170801, "緯度": 36.183537 }, "geometry": { "type": "Point", "coordinates": [ 136.170801, 36.183537 ] } },
{ "type": "Feature", "properties": { "施設名": "坂井松涛保育園", "郵便番号": "919-0511", "住所": "坂井市坂井町長畑１４－１－１", "電話番号": "0776-50-2181", "備考": "保育所", "経度": 136.237159, "緯度": 36.166138 }, "geometry": { "type": "Point", "coordinates": [ 136.237159, 36.166138 ] } },
{ "type": "Feature", "properties": { "施設名": "よつば保育園", "郵便番号": "910-0365", "住所": "坂井市丸岡町磯部福庄２４－１８", "電話番号": "0776-68-1112", "備考": "保育所", "経度": 136.266275, "緯度": 36.116813 }, "geometry": { "type": "Point", "coordinates": [ 136.266275, 36.116813 ] } },
{ "type": "Feature", "properties": { "施設名": "なかよし幼児園", "郵便番号": "910-1127", "住所": "吉田郡永平寺町松岡吉野堺１５－３７", "電話番号": "0776-61-1092", "備考": "保育所", "経度": 136.296437, "緯度": 36.087959 }, "geometry": { "type": "Point", "coordinates": [ 136.296437, 36.087959 ] } },
{ "type": "Feature", "properties": { "施設名": "松岡西幼児園", "郵便番号": "910-1132", "住所": "吉田郡永平寺町松岡葵３丁目１２０", "電話番号": "0776-61-0367", "備考": "保育所", "経度": 136.294612, "緯度": 36.09112 }, "geometry": { "type": "Point", "coordinates": [ 136.294612, 36.09112 ] } },
{ "type": "Feature", "properties": { "施設名": "松岡東幼児園", "郵便番号": "910-1118", "住所": "吉田郡永平寺町松岡薬師１丁目６３", "電話番号": "0776-61-0346", "備考": "保育所", "経度": 136.305108, "緯度": 36.0976 }, "geometry": { "type": "Point", "coordinates": [ 136.305108, 36.0976 ] } },
{ "type": "Feature", "properties": { "施設名": "御陵幼児園", "郵便番号": "910-1142", "住所": "吉田郡永平寺町松岡兼定島３８－６", "電話番号": "0776-61-2001", "備考": "保育所", "経度": 136.289273, "緯度": 36.106784 }, "geometry": { "type": "Point", "coordinates": [ 136.289273, 36.106784 ] } },
{ "type": "Feature", "properties": { "施設名": "志比北幼児園", "郵便番号": "910-1205", "住所": "吉田郡永平寺町吉波２３－８－１", "電話番号": "0776-63-2593", "備考": "保育所", "経度": 136.361708, "緯度": 36.095929 }, "geometry": { "type": "Point", "coordinates": [ 136.361708, 36.095929 ] } },
{ "type": "Feature", "properties": { "施設名": "志比南幼児園", "郵便番号": "910-1226", "住所": "吉田郡永平寺町市野々２－１９－１", "電話番号": "0776-63-2298", "備考": "保育所", "経度": 136.327775, "緯度": 36.069476 }, "geometry": { "type": "Point", "coordinates": [ 136.327775, 36.069476 ] } },
{ "type": "Feature", "properties": { "施設名": "志比幼児園", "郵便番号": "910-1214", "住所": "吉田郡永平寺町谷口１－１４", "電話番号": "0776-63-2307", "備考": "保育所", "経度": 136.333318, "緯度": 36.094704 }, "geometry": { "type": "Point", "coordinates": [ 136.333318, 36.094704 ] } },
{ "type": "Feature", "properties": { "施設名": "上志比幼児園", "郵便番号": "910-1313", "住所": "吉田郡永平寺町石上２６－２６", "電話番号": "0776-64-2145", "備考": "保育所", "経度": 136.402227, "緯度": 36.071105 }, "geometry": { "type": "Point", "coordinates": [ 136.402227, 36.071105 ] } },
{ "type": "Feature", "properties": { "施設名": "湯尾保育所", "郵便番号": "919-0101", "住所": "南条郡南越前町湯尾７２－１５", "電話番号": "0778-45-1168", "備考": "保育所", "経度": 136.196185, "緯度": 35.794313 }, "geometry": { "type": "Point", "coordinates": [ 136.196185, 35.794313 ] } },
{ "type": "Feature", "properties": { "施設名": "河野保育園", "郵便番号": "915-1112", "住所": "南条郡南越前町今泉１９－４８－４", "電話番号": "0778-48-2123", "備考": "保育所", "経度": 136.065665, "緯度": 35.829133 }, "geometry": { "type": "Point", "coordinates": [ 136.065665, 35.829133 ] } },
{ "type": "Feature", "properties": { "施設名": "あさひ保育所", "郵便番号": "916-0133", "住所": "丹生郡越前町気比庄57-206", "電話番号": "0778-34-0081", "備考": "保育所", "経度": 136.130259, "緯度": 35.979296 }, "geometry": { "type": "Point", "coordinates": [ 136.130259, 35.979296 ] } },
{ "type": "Feature", "properties": { "施設名": "朝日西保育所", "郵便番号": "916-0107", "住所": "丹生郡越前町上糸生８０－８", "電話番号": "0778-34-5602", "備考": "保育所", "経度": 136.08526, "緯度": 35.997253 }, "geometry": { "type": "Point", "coordinates": [ 136.08526, 35.997253 ] } },
{ "type": "Feature", "properties": { "施設名": "朝日南保育所", "郵便番号": "916-0144", "住所": "丹生郡越前町佐々生３３－３－１", "電話番号": "0778-34-1614", "備考": "保育所", "経度": 136.12318, "緯度": 35.954902 }, "geometry": { "type": "Point", "coordinates": [ 136.12318, 35.954902 ] } },
{ "type": "Feature", "properties": { "施設名": "宮崎中央保育所", "郵便番号": "916-0255", "住所": "丹生郡越前町江波６７－１４", "電話番号": "0778-32-2067", "備考": "保育所", "経度": 136.074655, "緯度": 35.944127 }, "geometry": { "type": "Point", "coordinates": [ 136.074655, 35.944127 ] } },
{ "type": "Feature", "properties": { "施設名": "小曽原保育所", "郵便番号": "916-0273", "住所": "丹生郡越前町小曽原３４－３１", "電話番号": "0778-32-2039", "備考": "保育所", "経度": 136.064181, "緯度": 35.927887 }, "geometry": { "type": "Point", "coordinates": [ 136.064181, 35.927887 ] } },
{ "type": "Feature", "properties": { "施設名": "陶の谷保育所", "郵便番号": "916-0266", "住所": "丹生郡越前町寺１３－１－１", "電話番号": "0778-32-3014", "備考": "保育所", "経度": 136.112043, "緯度": 35.932271 }, "geometry": { "type": "Point", "coordinates": [ 136.112043, 35.932271 ] } },
{ "type": "Feature", "properties": { "施設名": "城崎南保育所", "郵便番号": "916-0426", "住所": "丹生郡越前町米ノ４６－１２", "電話番号": null, "備考": "保育所", "経度": 135.996384, "緯度": 35.89113 }, "geometry": { "type": "Point", "coordinates": [ 135.996384, 35.89113 ] } },
{ "type": "Feature", "properties": { "施設名": "織田保育所", "郵便番号": "916-0215", "住所": "丹生郡越前町織田１０９－５６", "電話番号": "0778-36-0160", "備考": "保育所", "経度": 136.047341, "緯度": 35.956374 }, "geometry": { "type": "Point", "coordinates": [ 136.047341, 35.956374 ] } },
{ "type": "Feature", "properties": { "施設名": "あさがお保育園", "郵便番号": "916-0147", "住所": "丹生郡越前町内郡４－１３－２", "電話番号": "0778-34-1110", "備考": "保育所", "経度": 136.122713, "緯度": 35.97381 }, "geometry": { "type": "Point", "coordinates": [ 136.122713, 35.97381 ] } },
{ "type": "Feature", "properties": { "施設名": "西徳寺保育園", "郵便番号": "916-0422", "住所": "丹生郡越前町厨１５－２３", "電話番号": "0778-37-1354", "備考": "保育所", "経度": 135.999971, "緯度": 35.928281 }, "geometry": { "type": "Point", "coordinates": [ 135.999971, 35.928281 ] } },
{ "type": "Feature", "properties": { "施設名": "四ケ浦保育園", "郵便番号": "916-0311", "住所": "丹生郡越前町梅浦６０－１５－３", "電話番号": "0778-37-0305", "備考": "保育所", "経度": 135.984442, "緯度": 35.952608 }, "geometry": { "type": "Point", "coordinates": [ 135.984442, 35.952608 ] } },
{ "type": "Feature", "properties": { "施設名": "たいら保育園", "郵便番号": "916-0223", "住所": "丹生郡越前町下河原５－７", "電話番号": "0778-36-0251", "備考": "保育所", "経度": 136.055312, "緯度": 35.950014 }, "geometry": { "type": "Point", "coordinates": [ 136.055312, 35.950014 ] } },
{ "type": "Feature", "properties": { "施設名": "はぎの保育園", "郵便番号": "916-0202", "住所": "丹生郡越前町細野７３", "電話番号": "0778-36-0396", "備考": "保育所", "経度": 136.062694, "緯度": 35.975925 }, "geometry": { "type": "Point", "coordinates": [ 136.062694, 35.975925 ] } },
{ "type": "Feature", "properties": { "施設名": "せせらぎ保育園", "郵便番号": "919-1138", "住所": "三方郡美浜町河原市８－８", "電話番号": "0770-32-0167", "備考": "保育所", "経度": 135.946581, "緯度": 35.60264 }, "geometry": { "type": "Point", "coordinates": [ 135.946581, 35.60264 ] } },
{ "type": "Feature", "properties": { "施設名": "みずうみ保育園", "郵便番号": "919-1123", "住所": "三方郡美浜町久々子４２－１－３", "電話番号": "0770-32-0741", "備考": "保育所", "経度": 135.920014, "緯度": 35.60284 }, "geometry": { "type": "Point", "coordinates": [ 135.920014, 35.60284 ] } },
{ "type": "Feature", "properties": { "施設名": "あおなみ保育園", "郵便番号": "919-1205", "住所": "三方郡美浜町佐田６２－４３", "電話番号": "0770-38-1316", "備考": "保育所", "経度": 135.983569, "緯度": 35.627734 }, "geometry": { "type": "Point", "coordinates": [ 135.983569, 35.627734 ] } },
{ "type": "Feature", "properties": { "施設名": "高浜保育所", "郵便番号": "919-2225", "住所": "大飯郡高浜町宮崎６９－７－１", "電話番号": "0770-72-0142", "備考": "保育所", "経度": 135.553007, "緯度": 35.489053 }, "geometry": { "type": "Point", "coordinates": [ 135.553007, 35.489053 ] } },
{ "type": "Feature", "properties": { "施設名": "和田保育所", "郵便番号": "919-2201", "住所": "大飯郡高浜町和田１２４－３", "電話番号": "0770-72-0256", "備考": "保育所", "経度": 135.580261, "緯度": 35.491989 }, "geometry": { "type": "Point", "coordinates": [ 135.580261, 35.491989 ] } },
{ "type": "Feature", "properties": { "施設名": "青郷保育所", "郵便番号": "919-2381", "住所": "大飯郡高浜町西三松１３－５４－１", "電話番号": "0770-72-0887", "備考": "保育所", "経度": 135.510306, "緯度": 35.492028 }, "geometry": { "type": "Point", "coordinates": [ 135.510306, 35.492028 ] } },
{ "type": "Feature", "properties": { "施設名": "佐分利保育園", "郵便番号": "919-2125", "住所": "大飯郡おおい町石山２０－１４", "電話番号": "0770-78-1221", "備考": "保育所", "経度": 135.561962, "緯度": 35.450492 }, "geometry": { "type": "Point", "coordinates": [ 135.561962, 35.450492 ] } },
{ "type": "Feature", "properties": { "施設名": "中央保育所", "郵便番号": "919-1331", "住所": "三方上中郡若狭町鳥浜４８－３８", "電話番号": "0770-45-1815", "備考": "保育所", "経度": 135.905526, "緯度": 35.550805 }, "geometry": { "type": "Point", "coordinates": [ 135.905526, 35.550805 ] } },
{ "type": "Feature", "properties": { "施設名": "みそみ保育所", "郵便番号": "919-1316", "住所": "三方上中郡若狭町井崎４６－２４", "電話番号": "0770-45-0705", "備考": "保育所", "経度": 135.900544, "緯度": 35.513064 }, "geometry": { "type": "Point", "coordinates": [ 135.900544, 35.513064 ] } },
{ "type": "Feature", "properties": { "施設名": "明倫保育園", "郵便番号": "919-1311", "住所": "三方上中郡若狭町藤井１６－８０－４", "電話番号": "0770-45-0243", "備考": "保育所", "経度": 135.907443, "緯度": 35.534184 }, "geometry": { "type": "Point", "coordinates": [ 135.907443, 35.534184 ] } },
{ "type": "Feature", "properties": { "施設名": "梅の里保育園", "郵便番号": "919-1462", "住所": "三方上中郡若狭町田井２４－２－２", "電話番号": "0770-46-1030", "備考": "保育所", "経度": 135.868215, "緯度": 35.558564 }, "geometry": { "type": "Point", "coordinates": [ 135.868215, 35.558564 ] } },
{ "type": "Feature", "properties": { "施設名": "気山保育所", "郵便番号": "919-1302", "住所": "三方上中郡若狭町上瀬１－１－６７", "電話番号": "0770-45-1329", "備考": "保育所", "経度": 135.908573, "緯度": 35.584304 }, "geometry": { "type": "Point", "coordinates": [ 135.908573, 35.584304 ] } },
{ "type": "Feature", "properties": { "施設名": "とばっ子保育園", "郵便番号": "919-1504", "住所": "三方上中郡若狭町大鳥羽３８－３６－１", "電話番号": "0770-64-1100", "備考": "保育所", "経度": 135.867129, "緯度": 35.508577 }, "geometry": { "type": "Point", "coordinates": [ 135.867129, 35.508577 ] } },
{ "type": "Feature", "properties": { "施設名": "わかば保育園", "郵便番号": "919-1525", "住所": "三方上中郡若狭町瓜生３７－１", "電話番号": "0770-62-1411", "備考": "保育所", "経度": 135.875071, "緯度": 35.462005 }, "geometry": { "type": "Point", "coordinates": [ 135.875071, 35.462005 ] } },
{ "type": "Feature", "properties": { "施設名": "三宅保育所", "郵便番号": "919-1542", "住所": "三方上中郡若狭町井ノ口２９－２７－１", "電話番号": "0770-62-1461", "備考": "保育所", "経度": 135.851761, "緯度": 35.462782 }, "geometry": { "type": "Point", "coordinates": [ 135.851761, 35.462782 ] } },
{ "type": "Feature", "properties": { "施設名": "ののはな保育園", "郵便番号": "919-1556", "住所": "三方上中郡若狭町玉置５０－１", "電話番号": "0770-57-1488", "備考": "保育所", "経度": 135.824974, "緯度": 35.477341 }, "geometry": { "type": "Point", "coordinates": [ 135.824974, 35.477341 ] } },
{ "type": "Feature", "properties": { "施設名": "鉄道弘済会福井認定こども園\n（若草こども園）", "郵便番号": "910-0853", "住所": "福井市城東２丁目１０－１３", "電話番号": "0776-22-6485", "備考": "保育所型認定保育園", "経度": 136.236004, "緯度": 36.060184 }, "geometry": { "type": "Point", "coordinates": [ 136.236004, 36.060184 ] } },
{ "type": "Feature", "properties": { "施設名": "慈光保育園", "郵便番号": "916-1221", "住所": "鯖江市西袋町６４－２５", "電話番号": "0778-65-2044", "備考": "保育所型認定保育園", "経度": 136.276642, "緯度": 35.954894 }, "geometry": { "type": "Point", "coordinates": [ 136.276642, 35.954894 ] } },
{ "type": "Feature", "properties": { "施設名": "きらきらほいくえん", "郵便番号": "914-0125", "住所": "敦賀市若葉１丁目１６１０", "電話番号": "0770-22-6447", "備考": "地域型保育事業", "経度": 136.048303, "緯度": 35.634381 }, "geometry": { "type": "Point", "coordinates": [ 136.048303, 35.634381 ] } },
{ "type": "Feature", "properties": { "施設名": "げんきっこほいくえん", "郵便番号": "914-0821", "住所": "敦賀市松島１３０号松原", "電話番号": "0770-22-6696", "備考": "地域型保育事業", "経度": 136.044933, "緯度": 35.656679 }, "geometry": { "type": "Point", "coordinates": [ 136.044933, 35.656679 ] } },
{ "type": "Feature", "properties": { "施設名": "はましんわくわくステーション", "郵便番号": "917-0069", "住所": "小浜市小浜白鬚１１２", "電話番号": "0770-52-2505", "備考": "地域型保育事業", "経度": 135.742045, "緯度": 35.495595 }, "geometry": { "type": "Point", "coordinates": [ 135.742045, 35.495595 ] } },
{ "type": "Feature", "properties": { "施設名": "宮川保育園", "郵便番号": "917-0224", "住所": "小浜市竹長１４－１３－５", "電話番号": "0770-57-1723", "備考": "地域型保育事業", "経度": 135.818708, "緯度": 35.496533 }, "geometry": { "type": "Point", "coordinates": [ 135.818708, 35.496533 ] } },
{ "type": "Feature", "properties": { "施設名": "のぞみ保育園", "郵便番号": "916-0065", "住所": "鯖江市当田町１０－２－２", "電話番号": "0778-62-3234", "備考": "地域型保育事業", "経度": 136.16269, "緯度": 35.948192 }, "geometry": { "type": "Point", "coordinates": [ 136.16269, 35.948192 ] } },
{ "type": "Feature", "properties": { "施設名": "内浦保育所", "郵便番号": "919-2351", "住所": "大飯郡高浜町山中１０７－２６", "電話番号": "0770-76-1130", "備考": "地域型保育事業", "経度": 135.467861, "緯度": 35.51939 }, "geometry": { "type": "Point", "coordinates": [ 135.467861, 35.51939 ] } },
{ "type": "Feature", "properties": { "施設名": "岬保育所", "郵便番号": "919-1453", "住所": "三方上中郡若狭町小川１２－１", "電話番号": "0770-47-1715", "備考": "地域型保育事業", "経度": 135.845656, "緯度": 35.606106 }, "geometry": { "type": "Point", "coordinates": [ 135.845656, 35.606106 ] } },
{ "type": "Feature", "properties": { "施設名": "六条こども園", "郵便番号": "918-8136", "住所": "福井市天王町２１－１－１", "電話番号": "0776-41-1140", "備考": "幼保連携型認定保育園", "経度": 136.234578, "緯度": 36.027097 }, "geometry": { "type": "Point", "coordinates": [ 136.234578, 36.027097 ] } },
{ "type": "Feature", "properties": { "施設名": "文殊こども園", "郵便番号": "919-0323", "住所": "福井市太田町１４－１", "電話番号": "0776-38-0221", "備考": "幼保連携型認定保育園", "経度": 136.230259, "緯度": 36.011643 }, "geometry": { "type": "Point", "coordinates": [ 136.230259, 36.011643 ] } },
{ "type": "Feature", "properties": { "施設名": "鶉こども園", "郵便番号": "910-3143", "住所": "福井市砂子坂町６－２０", "電話番号": "0776-83-0160", "備考": "幼保連携型認定保育園", "経度": 136.145959, "緯度": 36.143461 }, "geometry": { "type": "Point", "coordinates": [ 136.145959, 36.143461 ] } },
{ "type": "Feature", "properties": { "施設名": "棗こども園", "郵便番号": "910-3133", "住所": "福井市石新保町１３－１７", "電話番号": "0776-85-1130", "備考": "幼保連携型認定保育園", "経度": 136.108165, "緯度": 36.145179 }, "geometry": { "type": "Point", "coordinates": [ 136.108165, 36.145179 ] } },
{ "type": "Feature", "properties": { "施設名": "東藤島こども園", "郵便番号": "910-0827", "住所": "福井市藤島町４６－１３－１", "電話番号": "0776-54-4355", "備考": "幼保連携型認定保育園", "経度": 136.27144, "緯度": 36.086492 }, "geometry": { "type": "Point", "coordinates": [ 136.27144, 36.086492 ] } },
{ "type": "Feature", "properties": { "施設名": "いずみこども園", "郵便番号": "918-8056", "住所": "福井市若杉浜２丁目３０２", "電話番号": "0776-35-0123", "備考": "幼保連携型認定保育園", "経度": 136.186955, "緯度": 36.062136 }, "geometry": { "type": "Point", "coordinates": [ 136.186955, 36.062136 ] } },
{ "type": "Feature", "properties": { "施設名": "幼保連携型認定こども園竹里", "郵便番号": "918-8239", "住所": "福井市成和１丁目３０３", "電話番号": "0776-26-1364", "備考": "幼保連携型認定保育園", "経度": 136.244803, "緯度": 36.05861 }, "geometry": { "type": "Point", "coordinates": [ 136.244803, 36.05861 ] } },
{ "type": "Feature", "properties": { "施設名": "めぐみこども園", "郵便番号": "918-8047", "住所": "福井市久喜津町３４－１", "電話番号": "0776-36-5057", "備考": "幼保連携型認定保育園", "経度": 136.179548, "緯度": 36.056925 }, "geometry": { "type": "Point", "coordinates": [ 136.179548, 36.056925 ] } },
{ "type": "Feature", "properties": { "施設名": "青い鳥こども園", "郵便番号": "910-0006", "住所": "福井市中央２丁目７－２３", "電話番号": "0776-21-2817", "備考": "幼保連携型認定保育園", "経度": 136.218075, "緯度": 36.0593 }, "geometry": { "type": "Point", "coordinates": [ 136.218075, 36.0593 ] } },
{ "type": "Feature", "properties": { "施設名": "さくら認定こども園", "郵便番号": "910-0017", "住所": "福井市文京１丁目３０－１", "電話番号": "0776-26-1192", "備考": "幼保連携型認定保育園", "経度": 136.224321, "緯度": 36.078665 }, "geometry": { "type": "Point", "coordinates": [ 136.224321, 36.078665 ] } },
{ "type": "Feature", "properties": { "施設名": "足羽東こども園", "郵便番号": "919-0312", "住所": "福井市東大味町１０－１－１", "電話番号": "0776-41-3122", "備考": "幼保連携型認定保育園", "経度": 136.258926, "緯度": 35.99511 }, "geometry": { "type": "Point", "coordinates": [ 136.258926, 35.99511 ] } },
{ "type": "Feature", "properties": { "施設名": "幼保連携型認定こども園あさかぜ", "郵便番号": "918-8035", "住所": "福井市渕１丁目３２１１", "電話番号": "0776-35-7160", "備考": "幼保連携型認定保育園", "経度": 136.191488, "緯度": 36.037789 }, "geometry": { "type": "Point", "coordinates": [ 136.191488, 36.037789 ] } },
{ "type": "Feature", "properties": { "施設名": "エールこども園", "郵便番号": "910-0006", "住所": "福井市中央２丁目７－２３", "電話番号": "0776-21-2817", "備考": "幼保連携型認定保育園", "経度": 136.218075, "緯度": 36.0593 }, "geometry": { "type": "Point", "coordinates": [ 136.218075, 36.0593 ] } },
{ "type": "Feature", "properties": { "施設名": "幼保連携型認定こども園三谷館", "郵便番号": "910-0006", "住所": "福井市中央２丁目１２－１５", "電話番号": "0776-20-5405", "備考": "幼保連携型認定保育園", "経度": 136.219311, "緯度": 36.057073 }, "geometry": { "type": "Point", "coordinates": [ 136.219311, 36.057073 ] } },
{ "type": "Feature", "properties": { "施設名": "認定こども園エンゼル保育園", "郵便番号": "918-8023", "住所": "福井市西谷２丁目７０２", "電話番号": "0776-33-0200", "備考": "幼保連携型認定保育園", "経度": 136.205234, "緯度": 36.038264 }, "geometry": { "type": "Point", "coordinates": [ 136.205234, 36.038264 ] } },
{ "type": "Feature", "properties": { "施設名": "認定こども園新田塚幼稚園", "郵便番号": "910-0067", "住所": "福井市新田塚２丁目４６－２６", "電話番号": "0776-26-1191", "備考": "幼保連携型認定保育園", "経度": 136.200158, "緯度": 36.089349 }, "geometry": { "type": "Point", "coordinates": [ 136.200158, 36.089349 ] } },
{ "type": "Feature", "properties": { "施設名": "昭和認定こども園昭和幼稚園", "郵便番号": "918-8005", "住所": "福井市みのり１丁目２９－１", "電話番号": "0776-35-0058", "備考": "幼保連携型認定保育園", "経度": 136.216336, "緯度": 36.048096 }, "geometry": { "type": "Point", "coordinates": [ 136.216336, 36.048096 ] } },
{ "type": "Feature", "properties": { "施設名": "認定こども園福井佼成幼稚園", "郵便番号": "918-8108", "住所": "福井市春日３丁目１３０３", "電話番号": "0776-35-2413", "備考": "幼保連携型認定保育園", "経度": 136.224288, "緯度": 36.051049 }, "geometry": { "type": "Point", "coordinates": [ 136.224288, 36.051049 ] } },
{ "type": "Feature", "properties": { "施設名": "みどりこども園", "郵便番号": "918-8007", "住所": "福井市足羽１丁目２２－１", "電話番号": "0776-36-2107", "備考": "幼保連携型認定保育園", "経度": 136.207481, "緯度": 36.059528 }, "geometry": { "type": "Point", "coordinates": [ 136.207481, 36.059528 ] } },
{ "type": "Feature", "properties": { "施設名": "認定こども園梅圃幼稚園", "郵便番号": "918-8152", "住所": "福井市今市町４６－２３", "電話番号": "0776-38-5811", "備考": "幼保連携型認定保育園", "経度": 136.20226, "緯度": 36.017483 }, "geometry": { "type": "Point", "coordinates": [ 136.20226, 36.017483 ] } },
{ "type": "Feature", "properties": { "施設名": "認定こども園栄冠幼稚園", "郵便番号": "910-0005", "住所": "福井市大手３－１５－１６", "電話番号": "0776-22-4598", "備考": "幼保連携型認定保育園", "経度": 136.218324, "緯度": 36.066363 }, "geometry": { "type": "Point", "coordinates": [ 136.218324, 36.066363 ] } },
{ "type": "Feature", "properties": { "施設名": "しみずこども園", "郵便番号": "910-3622", "住所": "福井市風巻町２８－５", "電話番号": "0776-98-3660", "備考": "幼保連携型認定保育園", "経度": 136.148074, "緯度": 36.027562 }, "geometry": { "type": "Point", "coordinates": [ 136.148074, 36.027562 ] } },
{ "type": "Feature", "properties": { "施設名": "ひまわりこども園", "郵便番号": "918-8007", "住所": "福井市足羽３丁目２－２８", "電話番号": "0776-35-2417", "備考": "幼保連携型認定保育園", "経度": 136.204959, "緯度": 36.056992 }, "geometry": { "type": "Point", "coordinates": [ 136.204959, 36.056992 ] } },
{ "type": "Feature", "properties": { "施設名": "社中央第一こども園", "郵便番号": "918-8026", "住所": "福井市渕町４丁目１００５", "電話番号": "0776-36-0695", "備考": "幼保連携型認定保育園", "経度": 136.194529, "緯度": 36.04088 }, "geometry": { "type": "Point", "coordinates": [ 136.194529, 36.04088 ] } },
{ "type": "Feature", "properties": { "施設名": "和田こども園", "郵便番号": "918-8238", "住所": "福井市和田３丁目９０７", "電話番号": "0776-26-3297", "備考": "幼保連携型認定保育園", "経度": 136.245618, "緯度": 36.04908 }, "geometry": { "type": "Point", "coordinates": [ 136.245618, 36.04908 ] } },
{ "type": "Feature", "properties": { "施設名": "玉ノ江こども園", "郵便番号": "918-8018", "住所": "福井市大島町柳５０４", "電話番号": "0776-36-7634", "備考": "幼保連携型認定保育園", "経度": 136.207276, "緯度": 36.03369 }, "geometry": { "type": "Point", "coordinates": [ 136.207276, 36.03369 ] } },
{ "type": "Feature", "properties": { "施設名": "社中央第二こども園", "郵便番号": "918-8046", "住所": "福井市運動公園１丁目３９０３", "電話番号": "0776-36-8403", "備考": "幼保連携型認定保育園", "経度": 136.179001, "緯度": 36.050151 }, "geometry": { "type": "Point", "coordinates": [ 136.179001, 36.050151 ] } },
{ "type": "Feature", "properties": { "施設名": "あさひこども園", "郵便番号": "910-2178", "住所": "福井市栂野町２－５３", "電話番号": "0776-41-3022", "備考": "幼保連携型認定保育園", "経度": 136.251284, "緯度": 36.035215 }, "geometry": { "type": "Point", "coordinates": [ 136.251284, 36.035215 ] } },
{ "type": "Feature", "properties": { "施設名": "みづこしこども園", "郵便番号": "910-0027", "住所": "福井市豊岡１丁目１１－１５", "電話番号": "0776-22-1010", "備考": "幼保連携型認定保育園", "経度": 136.192836, "緯度": 36.069674 }, "geometry": { "type": "Point", "coordinates": [ 136.192836, 36.069674 ] } },
{ "type": "Feature", "properties": { "施設名": "認定こども園花園", "郵便番号": "910-0003", "住所": "福井市松本１丁目３６－１５", "電話番号": "0776-26-6280", "備考": "幼保連携型認定保育園", "経度": 136.231929, "緯度": 36.075655 }, "geometry": { "type": "Point", "coordinates": [ 136.231929, 36.075655 ] } },
{ "type": "Feature", "properties": { "施設名": "えばたこども園", "郵便番号": "918-8016", "住所": "福井市江端町１２－９", "電話番号": "0776-38-3335", "備考": "幼保連携型認定保育園", "経度": 136.213751, "緯度": 36.026419 }, "geometry": { "type": "Point", "coordinates": [ 136.213751, 36.026419 ] } },
{ "type": "Feature", "properties": { "施設名": "さくらんぼ認定こども園", "郵便番号": "910-0804", "住所": "福井市高木中央２丁目３８１５", "電話番号": "0776-53-3063", "備考": "幼保連携型認定保育園", "経度": 136.236962, "緯度": 36.089623 }, "geometry": { "type": "Point", "coordinates": [ 136.236962, 36.089623 ] } },
{ "type": "Feature", "properties": { "施設名": "杉の木台こども園", "郵便番号": "918-8186", "住所": "福井市中野１丁目２１０５", "電話番号": "0776-38-3588", "備考": "幼保連携型認定保育園", "経度": 136.18641, "緯度": 36.000441 }, "geometry": { "type": "Point", "coordinates": [ 136.18641, 36.000441 ] } },
{ "type": "Feature", "properties": { "施設名": "認定こども園鷹巣ひかり", "郵便番号": "910-3372", "住所": "福井市西二ツ屋町９－８", "電話番号": "0776-86-1066", "備考": "幼保連携型認定保育園", "経度": 136.079882, "緯度": 36.13562 }, "geometry": { "type": "Point", "coordinates": [ 136.079882, 36.13562 ] } },
{ "type": "Feature", "properties": { "施設名": "清水台こども園", "郵便番号": "910-3604", "住所": "福井市グリーンハイツ１丁目１２８", "電話番号": "0776-98-2135", "備考": "幼保連携型認定保育園", "経度": 136.158339, "緯度": 36.045493 }, "geometry": { "type": "Point", "coordinates": [ 136.158339, 36.045493 ] } },
{ "type": "Feature", "properties": { "施設名": "やわらぎ木田認定こども園", "郵便番号": "918-8105", "住所": "福井市木田２丁目１７０１", "電話番号": "0776-34-8260", "備考": "幼保連携型認定保育園", "経度": 136.225344, "緯度": 36.045314 }, "geometry": { "type": "Point", "coordinates": [ 136.225344, 36.045314 ] } },
{ "type": "Feature", "properties": { "施設名": "三心えんざん認定こども園", "郵便番号": "918-8213", "住所": "福井市今泉町２５－１６－１", "電話番号": "0776-53-2666", "備考": "幼保連携型認定保育園", "経度": 136.25368, "緯度": 36.067679 }, "geometry": { "type": "Point", "coordinates": [ 136.25368, 36.067679 ] } },
{ "type": "Feature", "properties": { "施設名": "認定こども園木の実", "郵便番号": "918-8205", "住所": "福井市北四ツ居１丁目３０－１５", "電話番号": "0776-52-1801", "備考": "幼保連携型認定保育園", "経度": 136.247461, "緯度": 36.064659 }, "geometry": { "type": "Point", "coordinates": [ 136.247461, 36.064659 ] } },
{ "type": "Feature", "properties": { "施設名": "千寿たんぽぽこども園", "郵便番号": "910-0137", "住所": "福井市栗森町１５－２５", "電話番号": "0776-56-1777", "備考": "幼保連携型認定保育園", "経度": 136.238556, "緯度": 36.117067 }, "geometry": { "type": "Point", "coordinates": [ 136.238556, 36.117067 ] } },
{ "type": "Feature", "properties": { "施設名": "鹿苑こども園", "郵便番号": "918-8005", "住所": "福井市みのり２丁目３－４４", "電話番号": "0776-35-2059", "備考": "幼保連携型認定保育園", "経度": 136.213506, "緯度": 36.051049 }, "geometry": { "type": "Point", "coordinates": [ 136.213506, 36.051049 ] } },
{ "type": "Feature", "properties": { "施設名": "文京こども園", "郵便番号": "910-0017", "住所": "福井市文京４丁目９－１４", "電話番号": "0776-22-4730", "備考": "幼保連携型認定保育園", "経度": 136.209242, "緯度": 36.075992 }, "geometry": { "type": "Point", "coordinates": [ 136.209242, 36.075992 ] } },
{ "type": "Feature", "properties": { "施設名": "経田こども園", "郵便番号": "910-0015", "住所": "福井市二の宮３丁目６－１８", "電話番号": "0776-21-2420", "備考": "幼保連携型認定保育園", "経度": 136.216316, "緯度": 36.083703 }, "geometry": { "type": "Point", "coordinates": [ 136.216316, 36.083703 ] } },
{ "type": "Feature", "properties": { "施設名": "はちまんこども園", "郵便番号": "918-8011", "住所": "福井市月見４丁目１８－４", "電話番号": "0776-36-7005", "備考": "幼保連携型認定保育園", "経度": 136.207706, "緯度": 36.046049 }, "geometry": { "type": "Point", "coordinates": [ 136.207706, 36.046049 ] } },
{ "type": "Feature", "properties": { "施設名": "あさむつこども園", "郵便番号": "918-8017", "住所": "福井市下荒井町４－７６", "電話番号": "0776-38-9605", "備考": "幼保連携型認定保育園", "経度": 136.206929, "緯度": 36.027888 }, "geometry": { "type": "Point", "coordinates": [ 136.206929, 36.027888 ] } },
{ "type": "Feature", "properties": { "施設名": "認定こども園暁幼稚園", "郵便番号": "918-8047", "住所": "福井市久喜津町６４－２５－1", "電話番号": "0776-36-0988", "備考": "幼保連携型認定保育園", "経度": 136.177301, "緯度": 36.050012 }, "geometry": { "type": "Point", "coordinates": [ 136.177301, 36.050012 ] } },
{ "type": "Feature", "properties": { "施設名": "認定こども園城之橋幼稚園", "郵便番号": "910-0859", "住所": "福井市日之出３丁目３－３０", "電話番号": "0776-22-4859", "備考": "幼保連携型認定保育園", "経度": 136.229026, "緯度": 36.061842 }, "geometry": { "type": "Point", "coordinates": [ 136.229026, 36.061842 ] } },
{ "type": "Feature", "properties": { "施設名": "認定こども園花園幼稚園", "郵便番号": "910-0017", "住所": "福井市文京５丁目２５－２１", "電話番号": "0776-26-6310", "備考": "幼保連携型認定保育園", "経度": 136.203291, "緯度": 36.07912 }, "geometry": { "type": "Point", "coordinates": [ 136.203291, 36.07912 ] } },
{ "type": "Feature", "properties": { "施設名": "ゆりかご認定こども園", "郵便番号": "910-0063", "住所": "福井市灯明寺３丁目２５１５", "電話番号": "0776-25-2717", "備考": "幼保連携型認定保育園", "経度": 136.212562, "緯度": 36.096313 }, "geometry": { "type": "Point", "coordinates": [ 136.212562, 36.096313 ] } },
{ "type": "Feature", "properties": { "施設名": "岡保こども園", "郵便番号": "918-8223", "住所": "福井市河水町１８－１０", "電話番号": "0776-54-5825", "備考": "幼保連携型認定保育園", "経度": 136.273296, "緯度": 36.050981 }, "geometry": { "type": "Point", "coordinates": [ 136.273296, 36.050981 ] } },
{ "type": "Feature", "properties": { "施設名": "日光こども園", "郵便番号": "910-0029", "住所": "福井市日光２丁目２２－２０", "電話番号": "0776-26-2700", "備考": "幼保連携型認定保育園", "経度": 136.198183, "緯度": 36.072071 }, "geometry": { "type": "Point", "coordinates": [ 136.198183, 36.072071 ] } },
{ "type": "Feature", "properties": { "施設名": "ゆきんこ光陽こども園", "郵便番号": "910-0026", "住所": "福井市光陽２丁目２３－２５", "電話番号": "0776-24-3584", "備考": "幼保連携型認定保育園", "経度": 136.201609, "緯度": 36.064624 }, "geometry": { "type": "Point", "coordinates": [ 136.201609, 36.064624 ] } },
{ "type": "Feature", "properties": { "施設名": "ふじしま認定こども園", "郵便番号": "910-0846", "住所": "福井市四ツ井１丁目７－１１", "電話番号": "0776-52-2110", "備考": "幼保連携型認定保育園", "経度": 136.235942, "緯度": 36.066509 }, "geometry": { "type": "Point", "coordinates": [ 136.235942, 36.066509 ] } },
{ "type": "Feature", "properties": { "施設名": "中藤東こども園", "郵便番号": "910-0837", "住所": "福井市高柳３丁目３２０６", "電話番号": "0776-53-6633", "備考": "幼保連携型認定保育園", "経度": 136.24042, "緯度": 36.097969 }, "geometry": { "type": "Point", "coordinates": [ 136.24042, 36.097969 ] } },
{ "type": "Feature", "properties": { "施設名": "認定こども園　聖三一幼稚園", "郵便番号": "910-0004", "住所": "福井市宝永２丁目５－７", "電話番号": "0776-22-3347", "備考": "幼保連携型認定保育園", "経度": 136.226349, "緯度": 36.069011 }, "geometry": { "type": "Point", "coordinates": [ 136.226349, 36.069011 ] } },
{ "type": "Feature", "properties": { "施設名": "認定こども園　光の子", "郵便番号": "910-0029", "住所": "福井市日光２丁目９－７", "電話番号": "0776-29-1214", "備考": "幼保連携型認定保育園", "経度": 136.201282, "緯度": 36.07309 }, "geometry": { "type": "Point", "coordinates": [ 136.201282, 36.07309 ] } },
{ "type": "Feature", "properties": { "施設名": "藤島幼稚園", "郵便番号": "910-0011", "住所": "福井市経田２丁目５１２", "電話番号": "0776-26-0269", "備考": "幼保連携型認定保育園", "経度": 136.217427, "緯度": 36.088944 }, "geometry": { "type": "Point", "coordinates": [ 136.217427, 36.088944 ] } },
{ "type": "Feature", "properties": { "施設名": "さみどり保育園", "郵便番号": "914-0051", "住所": "敦賀市本町１－７－７", "電話番号": "0770-22-1000", "備考": "幼保連携型認定保育園", "経度": 136.073457, "緯度": 35.651502 }, "geometry": { "type": "Point", "coordinates": [ 136.073457, 35.651502 ] } },
{ "type": "Feature", "properties": { "施設名": "新和さみどり保育園", "郵便番号": "914-0122", "住所": "敦賀市新和１丁目６－７", "電話番号": "0770-20-0200", "備考": "幼保連携型認定保育園", "経度": 136.056194, "緯度": 35.63011 }, "geometry": { "type": "Point", "coordinates": [ 136.056194, 35.63011 ] } },
{ "type": "Feature", "properties": { "施設名": "第二早翠幼稚園", "郵便番号": "914-0124", "住所": "敦賀市市野々６－２－２", "電話番号": "0770-21-0002", "備考": "幼保連携型認定保育園", "経度": 136.055255, "緯度": 35.632298 }, "geometry": { "type": "Point", "coordinates": [ 136.055255, 35.632298 ] } },
{ "type": "Feature", "properties": { "施設名": "小浜市浜っ子こども園", "郵便番号": "917-0081", "住所": "小浜市川崎１丁目４－３", "電話番号": "0770-52-0142", "備考": "幼保連携型認定保育園", "経度": 135.741578, "緯度": 35.499762 }, "geometry": { "type": "Point", "coordinates": [ 135.741578, 35.499762 ] } },
{ "type": "Feature", "properties": { "施設名": "誓念寺こども園", "郵便番号": "912-0023", "住所": "大野市中荒井町２丁目８２４", "電話番号": "0779-65-6167", "備考": "幼保連携型認定保育園", "経度": 136.493573, "緯度": 35.987826 }, "geometry": { "type": "Point", "coordinates": [ 136.493573, 35.987826 ] } },
{ "type": "Feature", "properties": { "施設名": "誓念寺中野こども園", "郵便番号": "912-0017", "住所": "大野市東中野２丁目６０３", "電話番号": "0779-65-6166", "備考": "幼保連携型認定保育園", "経度": 136.497198, "緯度": 35.9951 }, "geometry": { "type": "Point", "coordinates": [ 136.497198, 35.9951 ] } },
{ "type": "Feature", "properties": { "施設名": "いなやまこども園", "郵便番号": "912-0061", "住所": "大野市篠座９４－３９", "電話番号": "0779-66-0038", "備考": "幼保連携型認定保育園", "経度": 136.497134, "緯度": 35.971092 }, "geometry": { "type": "Point", "coordinates": [ 136.497134, 35.971092 ] } },
{ "type": "Feature", "properties": { "施設名": "いなほこども園", "郵便番号": "912-0053", "住所": "大野市春日二丁目16-5", "電話番号": "0779-66-1740", "備考": "幼保連携型認定保育園", "経度": 136.495126, "緯度": 35.973048 }, "geometry": { "type": "Point", "coordinates": [ 136.495126, 35.973048 ] } },
{ "type": "Feature", "properties": { "施設名": "しろきこども園", "郵便番号": "911-0032", "住所": "勝山市芳野町２－３－１９", "電話番号": "0779-88-3213", "備考": "幼保連携型認定保育園", "経度": 136.502314, "緯度": 36.06943 }, "geometry": { "type": "Point", "coordinates": [ 136.502314, 36.06943 ] } },
{ "type": "Feature", "properties": { "施設名": "きたこども園", "郵便番号": "911-0801", "住所": "勝山市沢町２丁目３－２２", "電話番号": "0779-88-1557", "備考": "幼保連携型認定保育園", "経度": 136.501503, "緯度": 36.064189 }, "geometry": { "type": "Point", "coordinates": [ 136.501503, 36.064189 ] } },
{ "type": "Feature", "properties": { "施設名": "上野こども園", "郵便番号": "911-0048", "住所": "勝山市荒土町別所３３－５８－１", "電話番号": "0779-89-2022", "備考": "幼保連携型認定保育園", "経度": 136.47528, "緯度": 36.083875 }, "geometry": { "type": "Point", "coordinates": [ 136.47528, 36.083875 ] } },
{ "type": "Feature", "properties": { "施設名": "鯖江市ゆたかこども園", "郵便番号": "916-0074", "住所": "鯖江市上野田町２－９", "電話番号": "0778-62-1680", "備考": "幼保連携型認定保育園", "経度": 136.151328, "緯度": 35.942076 }, "geometry": { "type": "Point", "coordinates": [ 136.151328, 35.942076 ] } },
{ "type": "Feature", "properties": { "施設名": "あおいこども園", "郵便番号": "916-0017", "住所": "鯖江市神明町４丁目１－７", "電話番号": "0778-52-2231", "備考": "幼保連携型認定保育園", "経度": 136.186786, "緯度": 35.977914 }, "geometry": { "type": "Point", "coordinates": [ 136.186786, 35.977914 ] } },
{ "type": "Feature", "properties": { "施設名": "北潟こども園", "郵便番号": "910-4272", "住所": "あわら市北潟３６－１７－２", "電話番号": "0776-79-1204", "備考": "幼保連携型認定保育園", "経度": 136.223346, "緯度": 36.261508 }, "geometry": { "type": "Point", "coordinates": [ 136.223346, 36.261508 ] } },
{ "type": "Feature", "properties": { "施設名": "本荘こども園", "郵便番号": "910-4138", "住所": "あわら市下番７－１", "電話番号": "0776-77-3305", "備考": "幼保連携型認定保育園", "経度": 136.195826, "緯度": 36.206855 }, "geometry": { "type": "Point", "coordinates": [ 136.195826, 36.206855 ] } },
{ "type": "Feature", "properties": { "施設名": "金津こども園", "郵便番号": "919-0632", "住所": "あわら市春宮３丁目２４－２０", "電話番号": "0776-73-1228", "備考": "幼保連携型認定保育園", "経度": 136.229844, "緯度": 36.219432 }, "geometry": { "type": "Point", "coordinates": [ 136.229844, 36.219432 ] } },
{ "type": "Feature", "properties": { "施設名": "金津東こども園", "郵便番号": "919-0741", "住所": "あわら市中川１７－１８", "電話番号": "0776-74-1055", "備考": "幼保連携型認定保育園", "経度": 136.27031, "緯度": 36.197716 }, "geometry": { "type": "Point", "coordinates": [ 136.27031, 36.197716 ] } },
{ "type": "Feature", "properties": { "施設名": "善久寺こども園", "郵便番号": "910-4105", "住所": "あわら市舟津３丁目２３－２", "電話番号": "0776-77-2373", "備考": "幼保連携型認定保育園", "経度": 136.190548, "緯度": 36.224767 }, "geometry": { "type": "Point", "coordinates": [ 136.190548, 36.224767 ] } },
{ "type": "Feature", "properties": { "施設名": "あわら敬愛こども園", "郵便番号": "910-4124", "住所": "あわら市田中々３－７－６", "電話番号": "0776-78-7885", "備考": "幼保連携型認定保育園", "経度": 136.197153, "緯度": 36.221503 }, "geometry": { "type": "Point", "coordinates": [ 136.197153, 36.221503 ] } },
{ "type": "Feature", "properties": { "施設名": "細呂木こども園", "郵便番号": "919-0805", "住所": "あわら市滝６３－２５", "電話番号": "0776-58-2082", "備考": "幼保連携型認定保育園", "経度": 136.254849, "緯度": 36.239992 }, "geometry": { "type": "Point", "coordinates": [ 136.254849, 36.239992 ] } },
{ "type": "Feature", "properties": { "施設名": "伊井こども園", "郵便番号": "919-0611", "住所": "あわら市清間２１－２７－１", "電話番号": "0776-73-2252", "備考": "幼保連携型認定保育園", "経度": 136.248979, "緯度": 36.196679 }, "geometry": { "type": "Point", "coordinates": [ 136.248979, 36.196679 ] } },
{ "type": "Feature", "properties": { "施設名": "妙安寺こども園", "郵便番号": "919-0621", "住所": "あわら市市姫２丁目１７－３", "電話番号": "0776-73-0439", "備考": "幼保連携型認定保育園", "経度": 136.229658, "緯度": 36.213713 }, "geometry": { "type": "Point", "coordinates": [ 136.229658, 36.213713 ] } },
{ "type": "Feature", "properties": { "施設名": "白藤こども園", "郵便番号": "919-0621", "住所": "あわら市市姫１丁目１３－１７", "電話番号": "0776-73-1142", "備考": "幼保連携型認定保育園", "経度": 136.231916, "緯度": 36.213355 }, "geometry": { "type": "Point", "coordinates": [ 136.231916, 36.213355 ] } },
{ "type": "Feature", "properties": { "施設名": "芦原こども園", "郵便番号": "910-4115", "住所": "あわら市国影１３－１３", "電話番号": "0776-77-1166", "備考": "幼保連携型認定保育園", "経度": 136.203691, "緯度": 36.223948 }, "geometry": { "type": "Point", "coordinates": [ 136.203691, 36.223948 ] } },
{ "type": "Feature", "properties": { "施設名": "いちひめこども園", "郵便番号": "919-0621", "住所": "あわら市市姫三丁目８－１", "電話番号": "0776-73-2250", "備考": "幼保連携型認定保育園", "経度": 136.2267, "緯度": 36.210691 }, "geometry": { "type": "Point", "coordinates": [ 136.2267, 36.210691 ] } },
{ "type": "Feature", "properties": { "施設名": "認定こども園北日野", "郵便番号": "915-0052", "住所": "越前市矢放町１６－４", "電話番号": "0778-22-1772", "備考": "幼保連携型認定保育園", "経度": 136.187647, "緯度": 35.888809 }, "geometry": { "type": "Point", "coordinates": [ 136.187647, 35.888809 ] } },
{ "type": "Feature", "properties": { "施設名": "認定こども園北新庄", "郵便番号": "915-0004", "住所": "越前市北町３８－５－６", "電話番号": "0778-22-1974", "備考": "幼保連携型認定保育園", "経度": 136.209186, "緯度": 35.913326 }, "geometry": { "type": "Point", "coordinates": [ 136.209186, 35.913326 ] } },
{ "type": "Feature", "properties": { "施設名": "認定こども園岡本", "郵便番号": "915-0233", "住所": "越前市岩本町５－２６", "電話番号": "0778-42-0435", "備考": "幼保連携型認定保育園", "経度": 136.245037, "緯度": 35.908416 }, "geometry": { "type": "Point", "coordinates": [ 136.245037, 35.908416 ] } },
{ "type": "Feature", "properties": { "施設名": "認定こども園南中山", "郵便番号": "915-0253", "住所": "越前市中津山町４１－１３－２", "電話番号": "0778-42-0325", "備考": "幼保連携型認定保育園", "経度": 136.245857, "緯度": 35.929369 }, "geometry": { "type": "Point", "coordinates": [ 136.245857, 35.929369 ] } },
{ "type": "Feature", "properties": { "施設名": "認定こども園服間", "郵便番号": "915-0209", "住所": "越前市藤木町１２－３４", "電話番号": "0778-42-1029", "備考": "幼保連携型認定保育園", "経度": 136.263946, "緯度": 35.935539 }, "geometry": { "type": "Point", "coordinates": [ 136.263946, 35.935539 ] } },
{ "type": "Feature", "properties": { "施設名": "認定こども園あわたべ", "郵便番号": "915-0242", "住所": "越前市粟田部町４６－２", "電話番号": "0778-42-0493", "備考": "幼保連携型認定保育園", "経度": 136.240402, "緯度": 35.913265 }, "geometry": { "type": "Point", "coordinates": [ 136.240402, 35.913265 ] } },
{ "type": "Feature", "properties": { "施設名": "安養寺こども園", "郵便番号": "915-1201", "住所": "越前市安養寺町８９－２９－１", "電話番号": "0778-28-1741", "備考": "幼保連携型認定保育園", "経度": 136.077611, "緯度": 35.912023 }, "geometry": { "type": "Point", "coordinates": [ 136.077611, 35.912023 ] } },
{ "type": "Feature", "properties": { "施設名": "浪花認定こども園", "郵便番号": "915-0071", "住所": "越前市府中３丁目５－１２", "電話番号": "0778-22-7019", "備考": "幼保連携型認定保育園", "経度": 136.168716, "緯度": 35.907248 }, "geometry": { "type": "Point", "coordinates": [ 136.168716, 35.907248 ] } },
{ "type": "Feature", "properties": { "施設名": "わかたけ認定こども園", "郵便番号": "915-0888", "住所": "越前市高森町１８－７－２", "電話番号": "0778-22-6203", "備考": "幼保連携型認定保育園", "経度": 136.146032, "緯度": 35.905853 }, "geometry": { "type": "Point", "coordinates": [ 136.146032, 35.905853 ] } },
{ "type": "Feature", "properties": { "施設名": "認定東こども園", "郵便番号": "915-0061", "住所": "越前市堀川町３－１４", "電話番号": "0778-22-6637", "備考": "幼保連携型認定保育園", "経度": 136.172521, "緯度": 35.900441 }, "geometry": { "type": "Point", "coordinates": [ 136.172521, 35.900441 ] } },
{ "type": "Feature", "properties": { "施設名": "神山認定こども園", "郵便番号": "915-0872", "住所": "越前市広瀬町１３２－３－１", "電話番号": "0778-23-8688", "備考": "幼保連携型認定保育園", "経度": 136.141919, "緯度": 35.889694 }, "geometry": { "type": "Point", "coordinates": [ 136.141919, 35.889694 ] } },
{ "type": "Feature", "properties": { "施設名": "認定こども園里山ほのか学園", "郵便番号": "915-0892", "住所": "越前市氷坂町１４－２－１", "電話番号": "0778-23-0030", "備考": "幼保連携型認定保育園", "経度": 136.15002, "緯度": 35.924962 }, "geometry": { "type": "Point", "coordinates": [ 136.15002, 35.924962 ] } },
{ "type": "Feature", "properties": { "施設名": "味真野保育園", "郵便番号": "915-0024", "住所": "越前市上大坪町２８－３", "電話番号": "0778-27-2203", "備考": "幼保連携型認定保育園", "経度": 136.226787, "緯度": 35.885911 }, "geometry": { "type": "Point", "coordinates": [ 136.226787, 35.885911 ] } },
{ "type": "Feature", "properties": { "施設名": "坂井こども園", "郵便番号": "919-0512", "住所": "坂井市坂井町宮領４０－２５－１", "電話番号": "0776-66-5959", "備考": "幼保連携型認定保育園", "経度": 136.241181, "緯度": 36.165244 }, "geometry": { "type": "Point", "coordinates": [ 136.241181, 36.165244 ] } },
{ "type": "Feature", "properties": { "施設名": "雄島こども園", "郵便番号": "913-0062", "住所": "坂井市三国町陣ケ岡１６－１３－３", "電話番号": "0776-82-0094", "備考": "幼保連携型認定保育園", "経度": 136.141193, "緯度": 36.238114 }, "geometry": { "type": "Point", "coordinates": [ 136.141193, 36.238114 ] } },
{ "type": "Feature", "properties": { "施設名": "認定こども園　三国ひかり", "郵便番号": "913-0021", "住所": "坂井市三国町楽円５３－３", "電話番号": "0776-81-6565", "備考": "幼保連携型認定保育園", "経度": 136.159693, "緯度": 36.203249 }, "geometry": { "type": "Point", "coordinates": [ 136.159693, 36.203249 ] } },
{ "type": "Feature", "properties": { "施設名": "池田町なかよしこども園", "郵便番号": "910-2516", "住所": "今立郡池田町山田２０－１６－１", "電話番号": "0778-44-8181", "備考": "幼保連携型認定保育園", "経度": 136.339834, "緯度": 35.889147 }, "geometry": { "type": "Point", "coordinates": [ 136.339834, 35.889147 ] } },
{ "type": "Feature", "properties": { "施設名": "今庄なないろこども園", "郵便番号": "919-0131", "住所": "南条郡南越前町今庄２８－１０－２", "電話番号": "0778-45-0788", "備考": "幼保連携型認定保育園", "経度": 136.198423, "緯度": 35.779362 }, "geometry": { "type": "Point", "coordinates": [ 136.198423, 35.779362 ] } },
{ "type": "Feature", "properties": { "施設名": "南条こども園", "郵便番号": "919-0223", "住所": "南条郡南越前町東大道２３－１４－４", "電話番号": "0778-47-2227", "備考": "幼保連携型認定保育園", "経度": 136.194087, "緯度": 35.836163 }, "geometry": { "type": "Point", "coordinates": [ 136.194087, 35.836163 ] } },
{ "type": "Feature", "properties": { "施設名": "名田庄こども園", "郵便番号": "917-0371", "住所": "大飯郡おおい町名田庄小倉１６－１０－４", "電話番号": "0770-67-2126", "備考": "幼保連携型認定保育園", "経度": 135.67449, "緯度": 35.398981 }, "geometry": { "type": "Point", "coordinates": [ 135.67449, 35.398981 ] } },
{ "type": "Feature", "properties": { "施設名": "本郷こども園", "郵便番号": "919-2111", "住所": "大飯郡おおい町本郷１１０－５", "電話番号": "0770-77-0379", "備考": "幼保連携型認定保育園", "経度": 135.621412, "緯度": 35.476763 }, "geometry": { "type": "Point", "coordinates": [ 135.621412, 35.476763 ] } },
{ "type": "Feature", "properties": { "施設名": "大島認定こども園", "郵便番号": "919-2101", "住所": "大飯郡おおい町大島６０－２６", "電話番号": "0770-77-0210", "備考": "幼保連携型認定保育園", "経度": 135.647104, "緯度": 35.528032 }, "geometry": { "type": "Point", "coordinates": [ 135.647104, 35.528032 ] } }
]
}
